[
  {
    "place_id": "ChIJjQ5qMQC5VTcRUHffekJYqQE",
    "name": "Bangshal Police Station",
    "address": "PC76+J6J, ইংলিশ রোড, Dhaka, Bangladesh",
    "rating": 3,
    "contact_number": "02-9565700",
    "coordinates": {
      "lat": 23.7140937,
      "lng": 90.4105067
    }
  },
  {
    "place_id": "ChIJG8_2uI24VTcR2EDDQLH14QY",
    "name": "Traffic South Division.Dhaka metropolitan police",
    "address": "10, Circuit House Road, Dhaka-, Dhaka 1000, Bangladesh",
    "rating": "N/A",
    "contact_number": "02-8322507",
    "coordinates": {
      "lat": 23.7400657,
      "lng": 90.4087878
    }
  },
  {
    "place_id": "ChIJuer5Vi7HVTcRQnrsIJcG4_g",
    "name": "Kafrul Police Station",
    "address": "Near Police Staff College, Mirpur 14 Road, Mirpur Rd, Dhaka, Bangladesh",
    "rating": 3,
    "contact_number": "N/A",
    "coordinates": {
      "lat": 23.8012654,
      "lng": 90.3814275
    }
  },
  {
    "place_id": "ChIJ5x2vKlq4VTcRgDkOIcvu8WM",
    "name": "Motijheel Police Station",
    "address": "C/A, 140 Motijheel Rd, Dhaka 1000, Bangladesh",
    "rating": "N/A",
    "contact_number": "N/A",
    "coordinates": {
      "lat": 23.729981,
      "lng": 90.41704659999999
    }
  },
  {
    "place_id": "ChIJG8_2uI24VTcRAw90xGsfIK4",
    "name": "Dhaka Metropolitan Police Headquarters",
    "address": "36 Minto Rd, Dhaka 1000, Bangladesh",
    "rating": "N/A",
    "contact_number": "02-8614300",
    "coordinates": {
      "lat": 23.7436153,
      "lng": 90.4047849
    }
  },
  {
    "place_id": "ChIJd-s4j7rHVTcRyxH6N76Ui9Q",
    "name": "Vatara Police Station",
    "address": "House # 2 Madani Ave, Dhaka 1212, Bangladesh",
    "rating": "N/A",
    "contact_number": "N/A",
    "coordinates": {
      "lat": 23.7974262,
      "lng": 90.4239699
    }
  },
  {
    "place_id": "ChIJ_-tWyNjFVTcRxKtvoVrIAHI",
    "name": "Dakshinkhan Police Station",
    "address": "VCF8+8G7, Gono Koborsthan Rd, Dhaka 1230, Bangladesh",
    "rating": 5,
    "contact_number": "02-8931777",
    "coordinates": {
      "lat": 23.8732856,
      "lng": 90.4163047
    }
  },
  {
    "place_id": "ChIJ1VA8gFvGVTcRinLP30_vC8s",
    "name": "Khilkhet Police Station",
    "address": "RCH9+6VP, Bazar Road, Dhaka, Bangladesh",
    "rating": "N/A",
    "contact_number": "01320-041535",
    "coordinates": {
      "lat": 23.8280947,
      "lng": 90.41971679999999
    }
  },
  {
    "place_id": "ChIJ8aIZOVq_VTcRqF4C6nlrpbY",
    "name": "Mohammadpur Police Station",
    "address": "Block#E, Mohammadia Housing Easted, Q947+4GX, সাতমসজিদ সড়ক, ঢাকা, Bangladesh",
    "rating": "N/A",
    "contact_number": "01320-040865",
    "coordinates": {
      "lat": 23.7553717,
      "lng": 90.36386979999999
    }
  },
  {
    "place_id": "ChIJKRaDqVrEVTcRcZ-aARZzi58",
    "name": "Tongi East Police Station",
    "address": "VCW3+478, Tongi, Bangladesh",
    "rating": "N/A",
    "contact_number": "01320-070722",
    "coordinates": {
      "lat": 23.8952779,
      "lng": 90.4032148
    }
  },
  {
    "place_id": "ChIJQ_dNcI64VTcRWL1-F9Arh-o",
    "name": "Ramna Model Police Station",
    "address": "PCW3+7R9, Old Elephant Rd, Dhaka 1217, Bangladesh",
    "rating": "N/A",
    "contact_number": "01713-373125",
    "coordinates": {
      "lat": 23.7456715,
      "lng": 90.40459480000001
    }
  },
  {
    "place_id": "ChIJv77l7SPBVTcRQwByOqwr07g",
    "name": "Rupnagor Police Station",
    "address": "House10/A, Road No 4, ঢাকা 1216, Bangladesh",
    "rating": "N/A",
    "contact_number": "01713-373190",
    "coordinates": {
      "lat": 23.8173654,
      "lng": 90.36009659999999
    }
  },
  {
    "place_id": "ChIJ-z05Sta4VTcRfY5WvLHvRI4",
    "name": "Lalbagh Police Station",
    "address": "P99P+5J4, House#24 Raj Narayan Dhar Rd, Dhaka, Bangladesh",
    "rating": 5,
    "contact_number": "01199-883721",
    "coordinates": {
      "lat": 23.71612,
      "lng": 90.3843354
    }
  },
  {
    "place_id": "ChIJmdF9JaG4VTcRbOPXk6r8vYE",
    "name": "Farmgate Police Box",
    "address": "31 Kazi Nazrul Islam Ave, Dhaka 1215, Bangladesh",
    "rating": 5,
    "contact_number": "N/A",
    "coordinates": {
      "lat": 23.7593149,
      "lng": 90.3895694
    }
  },
  {
    "place_id": "ChIJqaGW5vPAVTcR1BP2Yt-VzjQ",
    "name": "Darussalam Police Station",
    "address": "98 Golartek Mosque Rd, Dhaka 1216, Bangladesh",
    "rating": "N/A",
    "contact_number": "02-48032032",
    "coordinates": {
      "lat": 23.7921185,
      "lng": 90.3429034
    }
  },
  {
    "place_id": "ChIJfwd257a4VTcRE9spWPsNhZU",
    "name": "Dhanmondi Model Thana",
    "address": "H#21 Road No 6, Dhaka 1205, Bangladesh",
    "rating": "N/A",
    "contact_number": "02-58616086",
    "coordinates": {
      "lat": 23.7433038,
      "lng": 90.3815053
    }
  },
  {
    "place_id": "ChIJVyxiCnDoVTcRrDiTSsIC1ck",
    "name": "Ashulia Police Station",
    "address": "W7VC+56F, R505, Baipayl, Bangladesh",
    "rating": "N/A",
    "contact_number": "N/A",
    "coordinates": {
      "lat": 23.9429251,
      "lng": 90.27054869999999
    }
  },
  {
    "place_id": "ChIJ141P33G4VTcRo8BErPZA4YA",
    "name": "Khilgaon Police Station",
    "address": "Block#C Market Road, Dhaka 1219, Bangladesh",
    "rating": "N/A",
    "contact_number": "01320-040223",
    "coordinates": {
      "lat": 23.7509405,
      "lng": 90.425222
    }
  },
  {
    "place_id": "ChIJxbdC3jm_VTcR-SmCwKK0aiE",
    "name": "Hazaribagh Police Station",
    "address": "20 Sher-E-Bangla Rd, Dhaka 1205, Bangladesh",
    "rating": "N/A",
    "contact_number": "N/A",
    "coordinates": {
      "lat": 23.73523909999999,
      "lng": 90.3691369
    }
  },
  {
    "place_id": "ChIJeZJP_Oq4VTcRrv-l3LD2k2A",
    "name": "Shahbagh Police Station",
    "address": "Police Control Room, Sahbag, 1000, Kazi Nazrul Islam Avenue, Dhaka 1200, Bangladesh",
    "rating": "N/A",
    "contact_number": "01713-373127",
    "coordinates": {
      "lat": 23.737131,
      "lng": 90.3961822
    }
  },
  {
    "place_id": "ChIJjQ5qMQC5VTcRUHffekJYqQE",
    "name": "Bangshal Police Station",
    "address": "PC76+J6J, ইংলিশ রোড, Dhaka, Bangladesh",
    "rating": 3,
    "contact_number": "02-9565700",
    "coordinates": {
      "lat": 23.7140937,
      "lng": 90.4105067
    }
  },
  {
    "place_id": "ChIJG8_2uI24VTcR2EDDQLH14QY",
    "name": "Traffic South Division.Dhaka metropolitan police",
    "address": "10, Circuit House Road, Dhaka-, Dhaka 1000, Bangladesh",
    "rating": "N/A",
    "contact_number": "02-8322507",
    "coordinates": {
      "lat": 23.7400657,
      "lng": 90.4087878
    }
  },
  {
    "place_id": "ChIJuer5Vi7HVTcRQnrsIJcG4_g",
    "name": "Kafrul Police Station",
    "address": "Near Police Staff College, Mirpur 14 Road, Mirpur Rd, Dhaka, Bangladesh",
    "rating": 3,
    "contact_number": "N/A",
    "coordinates": {
      "lat": 23.8012654,
      "lng": 90.3814275
    }
  },
  {
    "place_id": "ChIJ5x2vKlq4VTcRgDkOIcvu8WM",
    "name": "Motijheel Police Station",
    "address": "C/A, 140 Motijheel Rd, Dhaka 1000, Bangladesh",
    "rating": "N/A",
    "contact_number": "N/A",
    "coordinates": {
      "lat": 23.729981,
      "lng": 90.41704659999999
    }
  },
  {
    "place_id": "ChIJG8_2uI24VTcRAw90xGsfIK4",
    "name": "Dhaka Metropolitan Police Headquarters",
    "address": "36 Minto Rd, Dhaka 1000, Bangladesh",
    "rating": "N/A",
    "contact_number": "02-8614300",
    "coordinates": {
      "lat": 23.7436153,
      "lng": 90.4047849
    }
  },
  {
    "place_id": "ChIJd-s4j7rHVTcRyxH6N76Ui9Q",
    "name": "Vatara Police Station",
    "address": "House # 2 Madani Ave, Dhaka 1212, Bangladesh",
    "rating": "N/A",
    "contact_number": "N/A",
    "coordinates": {
      "lat": 23.7974262,
      "lng": 90.4239699
    }
  },
  {
    "place_id": "ChIJ_-tWyNjFVTcRxKtvoVrIAHI",
    "name": "Dakshinkhan Police Station",
    "address": "VCF8+8G7, Gono Koborsthan Rd, Dhaka 1230, Bangladesh",
    "rating": 5,
    "contact_number": "02-8931777",
    "coordinates": {
      "lat": 23.8732856,
      "lng": 90.4163047
    }
  },
  {
    "place_id": "ChIJ1VA8gFvGVTcRinLP30_vC8s",
    "name": "Khilkhet Police Station",
    "address": "RCH9+6VP, Bazar Road, Dhaka, Bangladesh",
    "rating": "N/A",
    "contact_number": "01320-041535",
    "coordinates": {
      "lat": 23.8280947,
      "lng": 90.41971679999999
    }
  },
  {
    "place_id": "ChIJ8aIZOVq_VTcRqF4C6nlrpbY",
    "name": "Mohammadpur Police Station",
    "address": "Block#E, Mohammadia Housing Easted, Q947+4GX, সাতমসজিদ সড়ক, ঢাকা, Bangladesh",
    "rating": "N/A",
    "contact_number": "01320-040865",
    "coordinates": {
      "lat": 23.7553717,
      "lng": 90.36386979999999
    }
  },
  {
    "place_id": "ChIJKRaDqVrEVTcRcZ-aARZzi58",
    "name": "Tongi East Police Station",
    "address": "VCW3+478, Tongi, Bangladesh",
    "rating": "N/A",
    "contact_number": "01320-070722",
    "coordinates": {
      "lat": 23.8952779,
      "lng": 90.4032148
    }
  },
  {
    "place_id": "ChIJQ_dNcI64VTcRWL1-F9Arh-o",
    "name": "Ramna Model Police Station",
    "address": "PCW3+7R9, Old Elephant Rd, Dhaka 1217, Bangladesh",
    "rating": "N/A",
    "contact_number": "01713-373125",
    "coordinates": {
      "lat": 23.7456715,
      "lng": 90.40459480000001
    }
  },
  {
    "place_id": "ChIJv77l7SPBVTcRQwByOqwr07g",
    "name": "Rupnagor Police Station",
    "address": "House10/A, Road No 4, ঢাকা 1216, Bangladesh",
    "rating": "N/A",
    "contact_number": "01713-373190",
    "coordinates": {
      "lat": 23.8173654,
      "lng": 90.36009659999999
    }
  },
  {
    "place_id": "ChIJ-z05Sta4VTcRfY5WvLHvRI4",
    "name": "Lalbagh Police Station",
    "address": "P99P+5J4, House#24 Raj Narayan Dhar Rd, Dhaka, Bangladesh",
    "rating": 5,
    "contact_number": "01199-883721",
    "coordinates": {
      "lat": 23.71612,
      "lng": 90.3843354
    }
  },
  {
    "place_id": "ChIJmdF9JaG4VTcRbOPXk6r8vYE",
    "name": "Farmgate Police Box",
    "address": "31 Kazi Nazrul Islam Ave, Dhaka 1215, Bangladesh",
    "rating": 5,
    "contact_number": "N/A",
    "coordinates": {
      "lat": 23.7593149,
      "lng": 90.3895694
    }
  },
  {
    "place_id": "ChIJqaGW5vPAVTcR1BP2Yt-VzjQ",
    "name": "Darussalam Police Station",
    "address": "98 Golartek Mosque Rd, Dhaka 1216, Bangladesh",
    "rating": "N/A",
    "contact_number": "02-48032032",
    "coordinates": {
      "lat": 23.7921185,
      "lng": 90.3429034
    }
  },
  {
    "place_id": "ChIJfwd257a4VTcRE9spWPsNhZU",
    "name": "Dhanmondi Model Thana",
    "address": "H#21 Road No 6, Dhaka 1205, Bangladesh",
    "rating": "N/A",
    "contact_number": "02-58616086",
    "coordinates": {
      "lat": 23.7433038,
      "lng": 90.3815053
    }
  },
  {
    "place_id": "ChIJVyxiCnDoVTcRrDiTSsIC1ck",
    "name": "Ashulia Police Station",
    "address": "W7VC+56F, R505, Baipayl, Bangladesh",
    "rating": "N/A",
    "contact_number": "N/A",
    "coordinates": {
      "lat": 23.9429251,
      "lng": 90.27054869999999
    }
  },
  {
    "place_id": "ChIJ141P33G4VTcRo8BErPZA4YA",
    "name": "Khilgaon Police Station",
    "address": "Block#C Market Road, Dhaka 1219, Bangladesh",
    "rating": "N/A",
    "contact_number": "01320-040223",
    "coordinates": {
      "lat": 23.7509405,
      "lng": 90.425222
    }
  },
  {
    "place_id": "ChIJxbdC3jm_VTcR-SmCwKK0aiE",
    "name": "Hazaribagh Police Station",
    "address": "20 Sher-E-Bangla Rd, Dhaka 1205, Bangladesh",
    "rating": "N/A",
    "contact_number": "N/A",
    "coordinates": {
      "lat": 23.73523909999999,
      "lng": 90.3691369
    }
  },
  {
    "place_id": "ChIJeZJP_Oq4VTcRrv-l3LD2k2A",
    "name": "Shahbagh Police Station",
    "address": "Police Control Room, Sahbag, 1000, Kazi Nazrul Islam Avenue, Dhaka 1200, Bangladesh",
    "rating": "N/A",
    "contact_number": "01713-373127",
    "coordinates": {
      "lat": 23.737131,
      "lng": 90.3961822
    }
  },
  {
    "place_id": "ChIJkTz0_fa4VTcRRtJMm6vissg",
    "name": "Paltan Police Box",
    "address": "PCH5+XWF, Topkhana Road, Dhaka 1205, Bangladesh",
    "rating": "N/A",
    "contact_number": "N/A",
    "coordinates": {
      "lat": 23.7299269,
      "lng": 90.40980739999999
    }
  },
  {
    "place_id": "ChIJJQPZ5mm4VTcR2r4XnAs-i1U",
    "name": "Shajahanpur Police Outpost",
    "address": "PCQG+M76, South Shahajahanpur, Dhaka 1217, Bangladesh",
    "rating": "N/A",
    "contact_number": "01580-787332",
    "coordinates": {
      "lat": 23.7391692,
      "lng": 90.42565049999999
    }
  },
  {
    "place_id": "ChIJgWC3YV64VTcRMR3Xyvwb5-U",
    "name": "Paltan Model Thana",
    "address": "PCJ7+WM8, VIP Rd, Dhaka, Bangladesh",
    "rating": 5,
    "contact_number": "N/A",
    "coordinates": {
      "lat": 23.7360921,
      "lng": 90.41619329999999
    }
  },
  {
    "place_id": "ChIJK6cogsa4VTcRwfM9L4bON_o",
    "name": "New Market Police Station",
    "address": "Nilkhet, P9MP+6QC, Katabon Rd, Dhaka 1205, Bangladesh",
    "rating": 5,
    "contact_number": "01320-039583",
    "coordinates": {
      "lat": 23.7330711,
      "lng": 90.38690419999999
    }
  },
  {
    "place_id": "ChIJGYMM64bGVTcRIInhzX_y6yU",
    "name": "Airport Police Station",
    "address": "1stFloor, RAB (HQ, Dhaka 1230, Bangladesh",
    "rating": "N/A",
    "contact_number": "N/A",
    "coordinates": {
      "lat": 23.8509608,
      "lng": 90.4109962
    }
  },
  {
    "place_id": "ChIJC4t9zPu4VTcRZ3-onOlpjNM",
    "name": "Bangladesh Police Headquarters, Dhaka",
    "address": "6 Phoenix Rd, Dhaka 1000, Bangladesh",
    "rating": 5,
    "contact_number": "01886-101009",
    "coordinates": {
      "lat": 23.7237024,
      "lng": 90.40692229999999
    }
  },
  {
    "place_id": "ChIJjeDLBS_HVTcRTkYdoAGPO4E",
    "name": "Public Order Management",
    "address": "R92M+V2R, Dhaka, Bangladesh",
    "rating": "N/A",
    "contact_number": "N/A",
    "coordinates": {
      "lat": 23.8022429,
      "lng": 90.38251029999999
    }
  },
  {
    "place_id": "ChIJkVVbU_XHVTcRBSS-21JwbF4",
    "name": "Rampura Police Station",
    "address": "Banasree Block H, House#21, Road#3/1, ঢাকা, Bangladesh",
    "rating": "N/A",
    "contact_number": "01320-040251",
    "coordinates": {
      "lat": 23.7612585,
      "lng": 90.4435486
    }
  },
  {
    "place_id": "ChIJbc5ql-PAVTcRNcKVClYRXz4",
    "name": "Shah Ali Police Station",
    "address": "Dhaka, Bangladesh",
    "rating": "N/A",
    "contact_number": "N/A",
    "coordinates": {
      "lat": 23.8054073,
      "lng": 90.3488964
    }
  },
  {
    "place_id": "ChIJq9jpNOe4VTcRab4h4XWRBT4",
    "name": "Chawk Bazar Police Station",
    "address": "Bakshi Bazar Rd, 2 Urdu Rd, Dhaka 1211, Bangladesh",
    "rating": "N/A",
    "contact_number": "02-57313966",
    "coordinates": {
      "lat": 23.7172459,
      "lng": 90.3957006
    }
  },
  {
    "place_id": "ChIJrZfO6jrBVTcRNuivB-8VDyk",
    "name": "Pallabi Police Fari",
    "address": "R9F7+HJW, Begum Rokeya Ave, Dhaka 1216, Bangladesh",
    "rating": "N/A",
    "contact_number": "07128-000",
    "coordinates": {
      "lat": 23.82399,
      "lng": 90.3640717
    }
  },
  {
    "place_id": "ChIJ01WKmPHGVTcRd94yCGacbBk",
    "name": "BHQ Guard Room",
    "address": "RCG4+P2G, Guardroom - Shaheen College Rd, Dhaka 1206, Bangladesh",
    "rating": "N/A",
    "contact_number": "N/A",
    "coordinates": {
      "lat": 23.8268073,
      "lng": 90.40507509999999
    }
  },
  {
    "place_id": "ChIJfeUS-IK2VTcRe9rOb7qCoPM",
    "name": "Kanchpur Highway Police Station",
    "address": "PG4F+8H3, N1, Kanchpur, Bangladesh",
    "rating": "N/A",
    "contact_number": "01814-840888",
    "coordinates": {
      "lat": 23.705753,
      "lng": 90.52393699999999
    }
  },
  {
    "place_id": "ChIJlWy5RDjEVTcRscgOkO_iEqQ",
    "name": "Abdullahpur Police Barrack",
    "address": "VCH2+VG4, M 10, Dhaka 1230, Bangladesh",
    "rating": "N/A",
    "contact_number": "01794-449949",
    "coordinates": {
      "lat": 23.8796493,
      "lng": 90.40132890000001
    }
  },
  {
    "place_id": "ChIJObYjpy_vVTcRHtQgaXe9DqU",
    "name": "Dhamrai Police Station",
    "address": "W678+VH6, College Rd, Dhamrai, Bangladesh",
    "rating": "N/A",
    "contact_number": "01857-002110",
    "coordinates": {
      "lat": 23.9146674,
      "lng": 90.2164016
    }
  },
  {
    "place_id": "ChIJ89e_1wrHVTcRKgdp4lxV8dI",
    "name": "Karail Ansar Camp",
    "address": "QCP6+V3H, Dhaka 1213, Bangladesh",
    "rating": "N/A",
    "contact_number": "N/A",
    "coordinates": {
      "lat": 23.7871906,
      "lng": 90.4102393
    }
  },
  {
    "place_id": "ChIJk-RtKWnHVTcRp733eY5RgBk",
    "name": "Mohakhali Traffic Police Box",
    "address": "Q9HX+45X, Shaheed Tajuddin Ahmed Ave, Dhaka 1212, Bangladesh",
    "rating": "N/A",
    "contact_number": "01927-925327",
    "coordinates": {
      "lat": 23.7778608,
      "lng": 90.3979885
    }
  },
  {
    "place_id": "ChIJIybNAkHHVTcRmH8zyhMLuTw",
    "name": "Military Police",
    "address": "Q9MR+988, Dhaka, Bangladesh",
    "rating": "N/A",
    "contact_number": "N/A",
    "coordinates": {
      "lat": 23.7834049,
      "lng": 90.39082189999999
    }
  },
  {
    "place_id": "ChIJVc9lHI7HVTcRwd_yLgONupA",
    "name": "Badda Police Station",
    "address": "H-12/A, DIT Project, 17 Bir Uttam Rafiqul Islam Ave, Dhaka 1212, Bangladesh",
    "rating": "N/A",
    "contact_number": "01781-817836",
    "coordinates": {
      "lat": 23.7713899,
      "lng": 90.4274354
    }
  },
  {
    "place_id": "ChIJpTioLInHVTcRYVTozbTrHnw",
    "name": "Badda Police Camp",
    "address": "QC9F+FV7, Jahurul Islam Ave, Dhaka 1212, Bangladesh",
    "rating": "N/A",
    "contact_number": "N/A",
    "coordinates": {
      "lat": 23.76865059999999,
      "lng": 90.42468339999999
    }
  },
  {
    "place_id": "ChIJjQ5qMQC5VTcRUHffekJYqQE",
    "name": "Bangshal Police Station",
    "address": "PC76+J6J, ইংলিশ রোড, Dhaka, Bangladesh",
    "rating": 3,
    "contact_number": "02-9565700",
    "coordinates": {
      "lat": 23.7140937,
      "lng": 90.4105067
    }
  },
  {
    "place_id": "ChIJG8_2uI24VTcR2EDDQLH14QY",
    "name": "Traffic South Division.Dhaka metropolitan police",
    "address": "10, Circuit House Road, Dhaka-, Dhaka 1000, Bangladesh",
    "rating": "N/A",
    "contact_number": "02-8322507",
    "coordinates": {
      "lat": 23.7400657,
      "lng": 90.4087878
    }
  },
  {
    "place_id": "ChIJuer5Vi7HVTcRQnrsIJcG4_g",
    "name": "Kafrul Police Station",
    "address": "Near Police Staff College, Mirpur 14 Road, Mirpur Rd, Dhaka, Bangladesh",
    "rating": 3,
    "contact_number": "N/A",
    "coordinates": {
      "lat": 23.8012654,
      "lng": 90.3814275
    }
  },
  {
    "place_id": "ChIJ5x2vKlq4VTcRgDkOIcvu8WM",
    "name": "Motijheel Police Station",
    "address": "C/A, 140 Motijheel Rd, Dhaka 1000, Bangladesh",
    "rating": "N/A",
    "contact_number": "N/A",
    "coordinates": {
      "lat": 23.729981,
      "lng": 90.41704659999999
    }
  },
  {
    "place_id": "ChIJG8_2uI24VTcRAw90xGsfIK4",
    "name": "Dhaka Metropolitan Police Headquarters",
    "address": "36 Minto Rd, Dhaka 1000, Bangladesh",
    "rating": "N/A",
    "contact_number": "02-8614300",
    "coordinates": {
      "lat": 23.7436153,
      "lng": 90.4047849
    }
  },
  {
    "place_id": "ChIJd-s4j7rHVTcRyxH6N76Ui9Q",
    "name": "Vatara Police Station",
    "address": "House # 2 Madani Ave, Dhaka 1212, Bangladesh",
    "rating": "N/A",
    "contact_number": "N/A",
    "coordinates": {
      "lat": 23.7974262,
      "lng": 90.4239699
    }
  },
  {
    "place_id": "ChIJ_-tWyNjFVTcRxKtvoVrIAHI",
    "name": "Dakshinkhan Police Station",
    "address": "VCF8+8G7, Gono Koborsthan Rd, Dhaka 1230, Bangladesh",
    "rating": 5,
    "contact_number": "02-8931777",
    "coordinates": {
      "lat": 23.8732856,
      "lng": 90.4163047
    }
  },
  {
    "place_id": "ChIJ1VA8gFvGVTcRinLP30_vC8s",
    "name": "Khilkhet Police Station",
    "address": "RCH9+6VP, Bazar Road, Dhaka, Bangladesh",
    "rating": "N/A",
    "contact_number": "01320-041535",
    "coordinates": {
      "lat": 23.8280947,
      "lng": 90.41971679999999
    }
  },
  {
    "place_id": "ChIJ8aIZOVq_VTcRqF4C6nlrpbY",
    "name": "Mohammadpur Police Station",
    "address": "Block#E, Mohammadia Housing Easted, Q947+4GX, সাতমসজিদ সড়ক, ঢাকা, Bangladesh",
    "rating": "N/A",
    "contact_number": "01320-040865",
    "coordinates": {
      "lat": 23.7553717,
      "lng": 90.36386979999999
    }
  },
  {
    "place_id": "ChIJKRaDqVrEVTcRcZ-aARZzi58",
    "name": "Tongi East Police Station",
    "address": "VCW3+478, Tongi, Bangladesh",
    "rating": "N/A",
    "contact_number": "01320-070722",
    "coordinates": {
      "lat": 23.8952779,
      "lng": 90.4032148
    }
  },
  {
    "place_id": "ChIJQ_dNcI64VTcRWL1-F9Arh-o",
    "name": "Ramna Model Police Station",
    "address": "PCW3+7R9, Old Elephant Rd, Dhaka 1217, Bangladesh",
    "rating": "N/A",
    "contact_number": "01713-373125",
    "coordinates": {
      "lat": 23.7456715,
      "lng": 90.40459480000001
    }
  },
  {
    "place_id": "ChIJv77l7SPBVTcRQwByOqwr07g",
    "name": "Rupnagor Police Station",
    "address": "House10/A, Road No 4, ঢাকা 1216, Bangladesh",
    "rating": "N/A",
    "contact_number": "01713-373190",
    "coordinates": {
      "lat": 23.8173654,
      "lng": 90.36009659999999
    }
  },
  {
    "place_id": "ChIJ-z05Sta4VTcRfY5WvLHvRI4",
    "name": "Lalbagh Police Station",
    "address": "P99P+5J4, House#24 Raj Narayan Dhar Rd, Dhaka, Bangladesh",
    "rating": 5,
    "contact_number": "01199-883721",
    "coordinates": {
      "lat": 23.71612,
      "lng": 90.3843354
    }
  },
  {
    "place_id": "ChIJmdF9JaG4VTcRbOPXk6r8vYE",
    "name": "Farmgate Police Box",
    "address": "31 Kazi Nazrul Islam Ave, Dhaka 1215, Bangladesh",
    "rating": 5,
    "contact_number": "N/A",
    "coordinates": {
      "lat": 23.7593149,
      "lng": 90.3895694
    }
  },
  {
    "place_id": "ChIJqaGW5vPAVTcR1BP2Yt-VzjQ",
    "name": "Darussalam Police Station",
    "address": "98 Golartek Mosque Rd, Dhaka 1216, Bangladesh",
    "rating": "N/A",
    "contact_number": "02-48032032",
    "coordinates": {
      "lat": 23.7921185,
      "lng": 90.3429034
    }
  },
  {
    "place_id": "ChIJfwd257a4VTcRE9spWPsNhZU",
    "name": "Dhanmondi Model Thana",
    "address": "H#21 Road No 6, Dhaka 1205, Bangladesh",
    "rating": "N/A",
    "contact_number": "02-58616086",
    "coordinates": {
      "lat": 23.7433038,
      "lng": 90.3815053
    }
  },
  {
    "place_id": "ChIJVyxiCnDoVTcRrDiTSsIC1ck",
    "name": "Ashulia Police Station",
    "address": "W7VC+56F, R505, Baipayl, Bangladesh",
    "rating": "N/A",
    "contact_number": "N/A",
    "coordinates": {
      "lat": 23.9429251,
      "lng": 90.27054869999999
    }
  },
  {
    "place_id": "ChIJ141P33G4VTcRo8BErPZA4YA",
    "name": "Khilgaon Police Station",
    "address": "Block#C Market Road, Dhaka 1219, Bangladesh",
    "rating": "N/A",
    "contact_number": "01320-040223",
    "coordinates": {
      "lat": 23.7509405,
      "lng": 90.425222
    }
  },
  {
    "place_id": "ChIJxbdC3jm_VTcR-SmCwKK0aiE",
    "name": "Hazaribagh Police Station",
    "address": "20 Sher-E-Bangla Rd, Dhaka 1205, Bangladesh",
    "rating": "N/A",
    "contact_number": "N/A",
    "coordinates": {
      "lat": 23.73523909999999,
      "lng": 90.3691369
    }
  },
  {
    "place_id": "ChIJeZJP_Oq4VTcRrv-l3LD2k2A",
    "name": "Shahbagh Police Station",
    "address": "Police Control Room, Sahbag, 1000, Kazi Nazrul Islam Avenue, Dhaka 1200, Bangladesh",
    "rating": "N/A",
    "contact_number": "01713-373127",
    "coordinates": {
      "lat": 23.737131,
      "lng": 90.3961822
    }
  },
  {
    "place_id": "ChIJkTz0_fa4VTcRRtJMm6vissg",
    "name": "Paltan Police Box",
    "address": "PCH5+XWF, Topkhana Road, Dhaka 1205, Bangladesh",
    "rating": "N/A",
    "contact_number": "N/A",
    "coordinates": {
      "lat": 23.7299269,
      "lng": 90.40980739999999
    }
  },
  {
    "place_id": "ChIJJQPZ5mm4VTcR2r4XnAs-i1U",
    "name": "Shajahanpur Police Outpost",
    "address": "PCQG+M76, South Shahajahanpur, Dhaka 1217, Bangladesh",
    "rating": "N/A",
    "contact_number": "01580-787332",
    "coordinates": {
      "lat": 23.7391692,
      "lng": 90.42565049999999
    }
  },
  {
    "place_id": "ChIJgWC3YV64VTcRMR3Xyvwb5-U",
    "name": "Paltan Model Thana",
    "address": "PCJ7+WM8, VIP Rd, Dhaka, Bangladesh",
    "rating": 5,
    "contact_number": "N/A",
    "coordinates": {
      "lat": 23.7360921,
      "lng": 90.41619329999999
    }
  },
  {
    "place_id": "ChIJK6cogsa4VTcRwfM9L4bON_o",
    "name": "New Market Police Station",
    "address": "Nilkhet, P9MP+6QC, Katabon Rd, Dhaka 1205, Bangladesh",
    "rating": 5,
    "contact_number": "01320-039583",
    "coordinates": {
      "lat": 23.7330711,
      "lng": 90.38690419999999
    }
  },
  {
    "place_id": "ChIJGYMM64bGVTcRIInhzX_y6yU",
    "name": "Airport Police Station",
    "address": "1stFloor, RAB (HQ, Dhaka 1230, Bangladesh",
    "rating": "N/A",
    "contact_number": "N/A",
    "coordinates": {
      "lat": 23.8509608,
      "lng": 90.4109962
    }
  },
  {
    "place_id": "ChIJC4t9zPu4VTcRZ3-onOlpjNM",
    "name": "Bangladesh Police Headquarters, Dhaka",
    "address": "6 Phoenix Rd, Dhaka 1000, Bangladesh",
    "rating": 5,
    "contact_number": "01886-101009",
    "coordinates": {
      "lat": 23.7237024,
      "lng": 90.40692229999999
    }
  },
  {
    "place_id": "ChIJjeDLBS_HVTcRTkYdoAGPO4E",
    "name": "Public Order Management",
    "address": "R92M+V2R, Dhaka, Bangladesh",
    "rating": "N/A",
    "contact_number": "N/A",
    "coordinates": {
      "lat": 23.8022429,
      "lng": 90.38251029999999
    }
  },
  {
    "place_id": "ChIJkVVbU_XHVTcRBSS-21JwbF4",
    "name": "Rampura Police Station",
    "address": "Banasree Block H, House#21, Road#3/1, ঢাকা, Bangladesh",
    "rating": "N/A",
    "contact_number": "01320-040251",
    "coordinates": {
      "lat": 23.7612585,
      "lng": 90.4435486
    }
  },
  {
    "place_id": "ChIJbc5ql-PAVTcRNcKVClYRXz4",
    "name": "Shah Ali Police Station",
    "address": "Dhaka, Bangladesh",
    "rating": "N/A",
    "contact_number": "N/A",
    "coordinates": {
      "lat": 23.8054073,
      "lng": 90.3488964
    }
  },
  {
    "place_id": "ChIJq9jpNOe4VTcRab4h4XWRBT4",
    "name": "Chawk Bazar Police Station",
    "address": "Bakshi Bazar Rd, 2 Urdu Rd, Dhaka 1211, Bangladesh",
    "rating": "N/A",
    "contact_number": "02-57313966",
    "coordinates": {
      "lat": 23.7172459,
      "lng": 90.3957006
    }
  },
  {
    "place_id": "ChIJrZfO6jrBVTcRNuivB-8VDyk",
    "name": "Pallabi Police Fari",
    "address": "R9F7+HJW, Begum Rokeya Ave, Dhaka 1216, Bangladesh",
    "rating": "N/A",
    "contact_number": "07128-000",
    "coordinates": {
      "lat": 23.82399,
      "lng": 90.3640717
    }
  },
  {
    "place_id": "ChIJ01WKmPHGVTcRd94yCGacbBk",
    "name": "BHQ Guard Room",
    "address": "RCG4+P2G, Guardroom - Shaheen College Rd, Dhaka 1206, Bangladesh",
    "rating": "N/A",
    "contact_number": "N/A",
    "coordinates": {
      "lat": 23.8268073,
      "lng": 90.40507509999999
    }
  },
  {
    "place_id": "ChIJfeUS-IK2VTcRe9rOb7qCoPM",
    "name": "Kanchpur Highway Police Station",
    "address": "PG4F+8H3, N1, Kanchpur, Bangladesh",
    "rating": "N/A",
    "contact_number": "01814-840888",
    "coordinates": {
      "lat": 23.705753,
      "lng": 90.52393699999999
    }
  },
  {
    "place_id": "ChIJlWy5RDjEVTcRscgOkO_iEqQ",
    "name": "Abdullahpur Police Barrack",
    "address": "VCH2+VG4, M 10, Dhaka 1230, Bangladesh",
    "rating": "N/A",
    "contact_number": "01794-449949",
    "coordinates": {
      "lat": 23.8796493,
      "lng": 90.40132890000001
    }
  },
  {
    "place_id": "ChIJObYjpy_vVTcRHtQgaXe9DqU",
    "name": "Dhamrai Police Station",
    "address": "W678+VH6, College Rd, Dhamrai, Bangladesh",
    "rating": "N/A",
    "contact_number": "01857-002110",
    "coordinates": {
      "lat": 23.9146674,
      "lng": 90.2164016
    }
  },
  {
    "place_id": "ChIJ89e_1wrHVTcRKgdp4lxV8dI",
    "name": "Karail Ansar Camp",
    "address": "QCP6+V3H, Dhaka 1213, Bangladesh",
    "rating": "N/A",
    "contact_number": "N/A",
    "coordinates": {
      "lat": 23.7871906,
      "lng": 90.4102393
    }
  },
  {
    "place_id": "ChIJk-RtKWnHVTcRp733eY5RgBk",
    "name": "Mohakhali Traffic Police Box",
    "address": "Q9HX+45X, Shaheed Tajuddin Ahmed Ave, Dhaka 1212, Bangladesh",
    "rating": "N/A",
    "contact_number": "01927-925327",
    "coordinates": {
      "lat": 23.7778608,
      "lng": 90.3979885
    }
  },
  {
    "place_id": "ChIJIybNAkHHVTcRmH8zyhMLuTw",
    "name": "Military Police",
    "address": "Q9MR+988, Dhaka, Bangladesh",
    "rating": "N/A",
    "contact_number": "N/A",
    "coordinates": {
      "lat": 23.7834049,
      "lng": 90.39082189999999
    }
  },
  {
    "place_id": "ChIJVc9lHI7HVTcRwd_yLgONupA",
    "name": "Badda Police Station",
    "address": "H-12/A, DIT Project, 17 Bir Uttam Rafiqul Islam Ave, Dhaka 1212, Bangladesh",
    "rating": "N/A",
    "contact_number": "01781-817836",
    "coordinates": {
      "lat": 23.7713899,
      "lng": 90.4274354
    }
  },
  {
    "place_id": "ChIJpTioLInHVTcRYVTozbTrHnw",
    "name": "Badda Police Camp",
    "address": "QC9F+FV7, Jahurul Islam Ave, Dhaka 1212, Bangladesh",
    "rating": "N/A",
    "contact_number": "N/A",
    "coordinates": {
      "lat": 23.76865059999999,
      "lng": 90.42468339999999
    }
  },
  {
    "place_id": "ChIJT6T6I4_HVTcRrPUF3KFX2XA",
    "name": "Hatirjheel Traffic Police Box",
    "address": "QC8F+X6H, Bir Uttam Rafiqul Islam Ave, Dhaka 1212, Bangladesh",
    "rating": "N/A",
    "contact_number": "N/A",
    "coordinates": {
      "lat": 23.7674437,
      "lng": 90.4230975
    }
  },
  {
    "place_id": "ChIJyQmB9_DGVTcRt4iSkrvEhIY",
    "name": "Cantonment Police Station",
    "address": "RCF4+Q6P, Shaheed Sharani, Dhaka, Bangladesh",
    "rating": "N/A",
    "contact_number": "N/A",
    "coordinates": {
      "lat": 23.8244643,
      "lng": 90.40558759999999
    }
  },
  {
    "place_id": "ChIJF9ESbmLHVTcRiL1cQZqo5w8",
    "name": "Tejgaon Police Box",
    "address": "Q97X+CX8, Dhaka 1208, Bangladesh",
    "rating": "N/A",
    "contact_number": "N/A",
    "coordinates": {
      "lat": 23.7635314,
      "lng": 90.3999576
    }
  },
  {
    "place_id": "ChIJNf9UQU7HVTcR2sSQ9U0Naco",
    "name": "Office of Assistant Police Commissioner (Sher-E-Bangla Nagar Traffic Zone)",
    "address": "Q9GJ+R85, Begum Rokeya Ave, Dhaka, Bangladesh",
    "rating": "N/A",
    "contact_number": "02-9124154",
    "coordinates": {
      "lat": 23.7770029,
      "lng": 90.3808488
    }
  },
  {
    "place_id": "ChIJlRcwXU7HVTcRvPxa2nYuui8",
    "name": "Agargaon Police Box",
    "address": "Q9GJ+J93, Bir Uttom Major General Azizur Rahman Rd, Dhaka, Bangladesh",
    "rating": "N/A",
    "contact_number": "02-9124154",
    "coordinates": {
      "lat": 23.7765212,
      "lng": 90.380935
    }
  },
  {
    "place_id": "ChIJq-6ZhHq4VTcRRtForMfHpxk",
    "name": "433/3 ইতি বিউটি পার্লার এর অপোজিট",
    "address": "QC3C+7J4, nondipara sekher bridge, Dhaka, Bangladesh",
    "rating": "N/A",
    "contact_number": "01777-720029",
    "coordinates": {
      "lat": 23.7531352,
      "lng": 90.4215761
    }
  },
  {
    "place_id": "ChIJFav__Zq4VTcR7O4iKrxVgjI",
    "name": "Assistant Commissioner's Office",
    "address": "QC32+G95, Sonargaon - Rampura Link Rd, Dhaka 1208, Bangladesh",
    "rating": "N/A",
    "contact_number": "N/A",
    "coordinates": {
      "lat": 23.75376349999999,
      "lng": 90.400987
    }
  },
  {
    "place_id": "ChIJWV619tbAVTcR_A2FFi2vNB4",
    "name": "Traffic Police Control Room",
    "address": "10, 1216 Mirpur 10 Roundabout, Dhaka 1216, Bangladesh",
    "rating": "N/A",
    "contact_number": "N/A",
    "coordinates": {
      "lat": 23.80717319999999,
      "lng": 90.3686297
    }
  },
  {
    "place_id": "ChIJcx1Qmqi4VTcRMy9x3DH0Dg4",
    "name": "Khamar Bari Police Box",
    "address": "Q95M+GFV, Khamar Bari Rd, Dhaka 1215, Bangladesh",
    "rating": "N/A",
    "contact_number": "N/A",
    "coordinates": {
      "lat": 23.7588583,
      "lng": 90.3836863
    }
  },
  {
    "place_id": "ChIJR5YXp6zAVTcR7mO4UsHG-YE",
    "name": "Police Outpost",
    "address": "Q99F+HJC, Dhaka, Bangladesh",
    "rating": "N/A",
    "contact_number": "N/A",
    "coordinates": {
      "lat": 23.768946,
      "lng": 90.3740157
    }
  },
  {
    "place_id": "ChIJzfIx1dvAVTcRJr5qXh30sqU",
    "name": "Mirpur Model Police Station",
    "address": "R937+Q62, Mirpur Rd, Dhaka 1216, Bangladesh",
    "rating": "N/A",
    "contact_number": "02-9001001",
    "coordinates": {
      "lat": 23.8043941,
      "lng": 90.3630292
    }
  },
  {
    "place_id": "ChIJkzppjTDBVTcRmkeQj1VBmF8",
    "name": "Pallabi Police Station",
    "address": "R9JG+2QX, Shagufta New Rd, Dhaka 1216, Bangladesh",
    "rating": 3,
    "contact_number": "01320-041185",
    "coordinates": {
      "lat": 23.8301098,
      "lng": 90.3769805
    }
  },
  {
    "place_id": "ChIJkaFSv2G4VTcRbHYHlC6QEzo",
    "name": "CID Headquarters",
    "address": "PCV7+6FW, Dhaka 1217, Bangladesh",
    "rating": 5,
    "contact_number": "01709-960269",
    "coordinates": {
      "lat": 23.7431022,
      "lng": 90.41371529999999
    }
  },
  {
    "place_id": "ChIJLVVCe7zAVTcRTCcffTqhlHc",
    "name": "Police Bureau of Investigation",
    "address": "Q9H6+52G, Dhaka, Bangladesh",
    "rating": "N/A",
    "contact_number": "02-9515710",
    "coordinates": {
      "lat": 23.7779471,
      "lng": 90.3600728
    }
  },
  {
    "place_id": "ChIJ_2fNoqPAVTcRBQVJmbf6DPc",
    "name": "Adabor Police Station",
    "address": "1103 Ring Rd, Dhaka 1207, Bangladesh",
    "rating": "N/A",
    "contact_number": "01320-040893",
    "coordinates": {
      "lat": 23.770827,
      "lng": 90.359201
    }
  },
  {
    "place_id": "ChIJnU2ECpTAVTcR6TqpZKPERNo",
    "name": "Technical Police Fari",
    "address": "Techinical More,Darussalam,Dhaka, Q9J2+RGG, Mirpur Rd, Dhaka 1216, Bangladesh",
    "rating": "N/A",
    "contact_number": "N/A",
    "coordinates": {
      "lat": 23.7820682,
      "lng": 90.3513291
    }
  },
  {
    "place_id": "ChIJeUWi2Oq4VTcRRnogZZBmRNE",
    "name": "Shahbag Police Box",
    "address": "P9QW+5C2, Moulana Bhasani Rd, Dhaka 1205, Bangladesh",
    "rating": "N/A",
    "contact_number": "N/A",
    "coordinates": {
      "lat": 23.7378983,
      "lng": 90.39601909999999
    }
  },
  {
    "place_id": "ChIJMywn1BzBVTcRlAeIwTQ6dJM",
    "name": "Police Box",
    "address": "R87W+FQJ, Dhaka, Bangladesh",
    "rating": "N/A",
    "contact_number": "01713-373189",
    "coordinates": {
      "lat": 23.81372169999999,
      "lng": 90.34688369999999
    }
  },
  {
    "place_id": "ChIJSVVMBGS_VTcRbM2PMfYjCjo",
    "name": "Office of Additional Police Super",
    "address": "Road No. 4, Chand Uddan Housing, Mohammadpur, Dhaka 1207, Bangladesh",
    "rating": "N/A",
    "contact_number": "01769-690800",
    "coordinates": {
      "lat": 23.7564371,
      "lng": 90.35087039999999
    }
  },
  {
    "place_id": "ChIJj_i8hPi4VTcRDh7-8p52fyg",
    "name": "Sergeant Ahad Police Box | Gulistan",
    "address": "PCF6+9R4, Dhaka - Sylhet Hwy, Dhaka, Bangladesh",
    "rating": 1,
    "contact_number": "01868-388818",
    "coordinates": {
      "lat": 23.7233998,
      "lng": 90.4120799
    }
  },
  {
    "place_id": "ChIJrc6frX0nrTARYGn5Jyg2xcc",
    "name": "Panchlaish Model Police Station",
    "address": "9R7M+5J2, O.R. Nizam Rd, Chittagong 4203, Bangladesh",
    "rating": "N/A",
    "contact_number": "01713-373258",
    "coordinates": {
      "lat": 22.3628884,
      "lng": 91.8340049
    }
  },
  {
    "place_id": "ChIJO3AVpKfZrDARV05748sUvAI",
    "name": "Akbar Shah Police Station",
    "address": "Block C S Khulshi Rd, Chittagong 4207, Bangladesh",
    "rating": "N/A",
    "contact_number": "N/A",
    "coordinates": {
      "lat": 22.3737237,
      "lng": 91.78103039999999
    }
  },
  {
    "place_id": "ChIJJforZcrYrDARzv6jfucGi6M",
    "name": "Office of the Deputy Police Commissioner (Port)",
    "address": "8RG6+VPR, Agrabad Access Rd, Chittagong, Bangladesh",
    "rating": "N/A",
    "contact_number": "03125-14281",
    "coordinates": {
      "lat": 22.3272439,
      "lng": 91.8117544
    }
  },
  {
    "place_id": "ChIJBRBl4GQnrTARG6baQC_IBsM",
    "name": "Chawkbazar Police Station",
    "address": "9R5Q+2J8, Lal Chand Rd, Chittagong 4003, Bangladesh",
    "rating": "N/A",
    "contact_number": "03128-60133",
    "coordinates": {
      "lat": 22.357546,
      "lng": 91.83908439999999
    }
  },
  {
    "place_id": "ChIJG1aQclonrTARBQ420MF_j8c",
    "name": "Police Commissioner's Office",
    "address": "360 সি ডি এ এভেনিউ, Chittagong, Bangladesh",
    "rating": "N/A",
    "contact_number": "N/A",
    "coordinates": {
      "lat": 22.3359365,
      "lng": 91.8380435
    }
  },
  {
    "place_id": "ChIJCSDHx9ElrTAR82_uKIPLnXY",
    "name": "Boalkhali Post Office",
    "address": "Thana Rd, Boalkhali, Bangladesh",
    "rating": 3.7,
    "contact_number": "N/A",
    "coordinates": {
      "lat": 22.3779773,
      "lng": 91.9190417
    }
  },
  {
    "place_id": "ChIJ284LFxAnrTARigUun912zRw",
    "name": "Rahattarpul Police Bit",
    "address": "9V56+626, Chittagong, Bangladesh",
    "rating": "N/A",
    "contact_number": "01817-639262",
    "coordinates": {
      "lat": 22.3580349,
      "lng": 91.8600144
    }
  },
  {
    "place_id": "ChIJXbh5CXcnrTARuMehglZXiN0",
    "name": "Bahaddarhat Police Box",
    "address": "9R9V+46X, N1, Chittagong 4212, Bangladesh",
    "rating": "N/A",
    "contact_number": "031-654879",
    "coordinates": {
      "lat": 22.3678698,
      "lng": 91.8431238
    }
  },
  {
    "place_id": "ChIJw4EBXm3YrDARIuZaUYz1bNg",
    "name": "Police Station",
    "address": "9RVC+CP7, চট্রগ্রাম - রাঙামাটি-খাগড়াছড়ি মহাসড়ক, Chittagong, Bangladesh",
    "rating": "N/A",
    "contact_number": "01713-658951",
    "coordinates": {
      "lat": 22.3935408,
      "lng": 91.82178689999999
    }
  },
  {
    "place_id": "ChIJPeHwRHMsrTAR3UdnKTQeb58",
    "name": "Raozan Police Station",
    "address": "GWQ8+66M, Raozan, Bangladesh",
    "rating": "N/A",
    "contact_number": "01713-373639",
    "coordinates": {
      "lat": 22.5380795,
      "lng": 91.91553429999999
    }
  },
  {
    "place_id": "ChIJq2y2Bs8rrTARv8ScARHQPq0",
    "name": "Raozan Highway Police Station",
    "address": "GVHH+P87, Chittagong - Rangamati Hwy, Bangladesh",
    "rating": "N/A",
    "contact_number": "01733-231913",
    "coordinates": {
      "lat": 22.5292863,
      "lng": 91.87829099999999
    }
  },
  {
    "place_id": "ChIJt7MZpG8yrTARolIuHqQ7be8",
    "name": "Betbunia Police Station",
    "address": "Betbunitya, G2W2+92Q, Chittagong - Rangamati Road, Ranir Haat, Bangladesh",
    "rating": "N/A",
    "contact_number": "01769-690007",
    "coordinates": {
      "lat": 22.5459576,
      "lng": 92.00009709999999
    }
  },
  {
    "place_id": "ChIJ81l_Q6rYrDARuuLSVG_4oO8",
    "name": "Sadarghat Police Station",
    "address": "8RGJ+W4G, Strand Road, Chittagong 4000, Bangladesh",
    "rating": "N/A",
    "contact_number": "031-631414",
    "coordinates": {
      "lat": 22.3273165,
      "lng": 91.83032659999999
    }
  },
  {
    "place_id": "ChIJ34mAncfYrDAR9DVbATE1L14",
    "name": "Victim Support Center",
    "address": "Police Station, Double Mooring Police Station, Dhaka Trunk Rd, Chittagong 4100, Bangladesh",
    "rating": "N/A",
    "contact_number": "01819-830084",
    "coordinates": {
      "lat": 22.3385735,
      "lng": 91.8113521
    }
  },
  {
    "place_id": "ChIJCZm5j-LYrDARYPjAk_44aUU",
    "name": "Pahartali Police Bit",
    "address": "9Q5V+299, Shahid Ln, Chittagong, Bangladesh",
    "rating": "N/A",
    "contact_number": "01820-809947",
    "coordinates": {
      "lat": 22.3575346,
      "lng": 91.7934928
    }
  },
  {
    "place_id": "ChIJq-CTV43YrDARbz6boZ0mklQ",
    "name": "Police Bureau of Investigation",
    "address": "Diamond Touch, 360 Dhaka Trunk Rd, Chittagong, Bangladesh",
    "rating": "N/A",
    "contact_number": "01769-690333",
    "coordinates": {
      "lat": 22.3473366,
      "lng": 91.7986179
    }
  },
  {
    "place_id": "ChIJKyaMlBzZrDARUsqFCAZJBEo",
    "name": "Pahartali Police Station",
    "address": "9Q5Q+4MR, থানা রোড, Chittagong, Bangladesh",
    "rating": "N/A",
    "contact_number": "01320-052797",
    "coordinates": {
      "lat": 22.3578543,
      "lng": 91.78914639999999
    }
  },
  {
    "place_id": "ChIJh_vBIhDZrDARRU5SUDFl_bE",
    "name": "Alongkar Police Box",
    "address": "Dhaka - Chittagong Highway, 9Q5J+JPF, Near Alankar Circle, Chittagong 4217, Bangladesh",
    "rating": "N/A",
    "contact_number": "01617-820858",
    "coordinates": {
      "lat": 22.3590683,
      "lng": 91.78179089999999
    }
  },
  {
    "place_id": "ChIJhZe5HTHfrDARGLnQmmEHNQY",
    "name": "Jetty Police Outpost",
    "address": "8R84+2CQ, Mooring Rd, Chittagong, Bangladesh",
    "rating": "N/A",
    "contact_number": "N/A",
    "coordinates": {
      "lat": 22.3150769,
      "lng": 91.8061161
    }
  },
  {
    "place_id": "ChIJwbL4OjDfrDARi_UVSc9--a4",
    "name": "Bandar Police Station,Chattogram",
    "address": "Bandar Police Station, Chittagong, Bangladesh",
    "rating": "N/A",
    "contact_number": "01320-052899",
    "coordinates": {
      "lat": 22.3139563,
      "lng": 91.8033439
    }
  },
  {
    "place_id": "ChIJrc6frX0nrTARYGn5Jyg2xcc",
    "name": "Panchlaish Model Police Station",
    "address": "9R7M+5J2, O.R. Nizam Rd, Chittagong 4203, Bangladesh",
    "rating": "N/A",
    "contact_number": "01713-373258",
    "coordinates": {
      "lat": 22.3628884,
      "lng": 91.8340049
    }
  },
  {
    "place_id": "ChIJO3AVpKfZrDARV05748sUvAI",
    "name": "Akbar Shah Police Station",
    "address": "Block C S Khulshi Rd, Chittagong 4207, Bangladesh",
    "rating": "N/A",
    "contact_number": "N/A",
    "coordinates": {
      "lat": 22.3737237,
      "lng": 91.78103039999999
    }
  },
  {
    "place_id": "ChIJJforZcrYrDARzv6jfucGi6M",
    "name": "Office of the Deputy Police Commissioner (Port)",
    "address": "8RG6+VPR, Agrabad Access Rd, Chittagong, Bangladesh",
    "rating": "N/A",
    "contact_number": "03125-14281",
    "coordinates": {
      "lat": 22.3272439,
      "lng": 91.8117544
    }
  },
  {
    "place_id": "ChIJBRBl4GQnrTARG6baQC_IBsM",
    "name": "Chawkbazar Police Station",
    "address": "9R5Q+2J8, Lal Chand Rd, Chittagong 4003, Bangladesh",
    "rating": "N/A",
    "contact_number": "03128-60133",
    "coordinates": {
      "lat": 22.357546,
      "lng": 91.83908439999999
    }
  },
  {
    "place_id": "ChIJG1aQclonrTARBQ420MF_j8c",
    "name": "Police Commissioner's Office",
    "address": "360 সি ডি এ এভেনিউ, Chittagong, Bangladesh",
    "rating": "N/A",
    "contact_number": "N/A",
    "coordinates": {
      "lat": 22.3359365,
      "lng": 91.8380435
    }
  },
  {
    "place_id": "ChIJCSDHx9ElrTAR82_uKIPLnXY",
    "name": "Boalkhali Post Office",
    "address": "Thana Rd, Boalkhali, Bangladesh",
    "rating": 3.7,
    "contact_number": "N/A",
    "coordinates": {
      "lat": 22.3779773,
      "lng": 91.9190417
    }
  },
  {
    "place_id": "ChIJ284LFxAnrTARigUun912zRw",
    "name": "Rahattarpul Police Bit",
    "address": "9V56+626, Chittagong, Bangladesh",
    "rating": "N/A",
    "contact_number": "01817-639262",
    "coordinates": {
      "lat": 22.3580349,
      "lng": 91.8600144
    }
  },
  {
    "place_id": "ChIJXbh5CXcnrTARuMehglZXiN0",
    "name": "Bahaddarhat Police Box",
    "address": "9R9V+46X, N1, Chittagong 4212, Bangladesh",
    "rating": "N/A",
    "contact_number": "031-654879",
    "coordinates": {
      "lat": 22.3678698,
      "lng": 91.8431238
    }
  },
  {
    "place_id": "ChIJw4EBXm3YrDARIuZaUYz1bNg",
    "name": "Police Station",
    "address": "9RVC+CP7, চট্রগ্রাম - রাঙামাটি-খাগড়াছড়ি মহাসড়ক, Chittagong, Bangladesh",
    "rating": "N/A",
    "contact_number": "01713-658951",
    "coordinates": {
      "lat": 22.3935408,
      "lng": 91.82178689999999
    }
  },
  {
    "place_id": "ChIJPeHwRHMsrTAR3UdnKTQeb58",
    "name": "Raozan Police Station",
    "address": "GWQ8+66M, Raozan, Bangladesh",
    "rating": "N/A",
    "contact_number": "01713-373639",
    "coordinates": {
      "lat": 22.5380795,
      "lng": 91.91553429999999
    }
  },
  {
    "place_id": "ChIJq2y2Bs8rrTARv8ScARHQPq0",
    "name": "Raozan Highway Police Station",
    "address": "GVHH+P87, Chittagong - Rangamati Hwy, Bangladesh",
    "rating": "N/A",
    "contact_number": "01733-231913",
    "coordinates": {
      "lat": 22.5292863,
      "lng": 91.87829099999999
    }
  },
  {
    "place_id": "ChIJt7MZpG8yrTARolIuHqQ7be8",
    "name": "Betbunia Police Station",
    "address": "Betbunitya, G2W2+92Q, Chittagong - Rangamati Road, Ranir Haat, Bangladesh",
    "rating": "N/A",
    "contact_number": "01769-690007",
    "coordinates": {
      "lat": 22.5459576,
      "lng": 92.00009709999999
    }
  },
  {
    "place_id": "ChIJ81l_Q6rYrDARuuLSVG_4oO8",
    "name": "Sadarghat Police Station",
    "address": "8RGJ+W4G, Strand Road, Chittagong 4000, Bangladesh",
    "rating": "N/A",
    "contact_number": "031-631414",
    "coordinates": {
      "lat": 22.3273165,
      "lng": 91.83032659999999
    }
  },
  {
    "place_id": "ChIJ34mAncfYrDAR9DVbATE1L14",
    "name": "Victim Support Center",
    "address": "Police Station, Double Mooring Police Station, Dhaka Trunk Rd, Chittagong 4100, Bangladesh",
    "rating": "N/A",
    "contact_number": "01819-830084",
    "coordinates": {
      "lat": 22.3385735,
      "lng": 91.8113521
    }
  },
  {
    "place_id": "ChIJCZm5j-LYrDARYPjAk_44aUU",
    "name": "Pahartali Police Bit",
    "address": "9Q5V+299, Shahid Ln, Chittagong, Bangladesh",
    "rating": "N/A",
    "contact_number": "01820-809947",
    "coordinates": {
      "lat": 22.3575346,
      "lng": 91.7934928
    }
  },
  {
    "place_id": "ChIJq-CTV43YrDARbz6boZ0mklQ",
    "name": "Police Bureau of Investigation",
    "address": "Diamond Touch, 360 Dhaka Trunk Rd, Chittagong, Bangladesh",
    "rating": "N/A",
    "contact_number": "01769-690333",
    "coordinates": {
      "lat": 22.3473366,
      "lng": 91.7986179
    }
  },
  {
    "place_id": "ChIJKyaMlBzZrDARUsqFCAZJBEo",
    "name": "Pahartali Police Station",
    "address": "9Q5Q+4MR, থানা রোড, Chittagong, Bangladesh",
    "rating": "N/A",
    "contact_number": "01320-052797",
    "coordinates": {
      "lat": 22.3578543,
      "lng": 91.78914639999999
    }
  },
  {
    "place_id": "ChIJh_vBIhDZrDARRU5SUDFl_bE",
    "name": "Alongkar Police Box",
    "address": "Dhaka - Chittagong Highway, 9Q5J+JPF, Near Alankar Circle, Chittagong 4217, Bangladesh",
    "rating": "N/A",
    "contact_number": "01617-820858",
    "coordinates": {
      "lat": 22.3590683,
      "lng": 91.78179089999999
    }
  },
  {
    "place_id": "ChIJhZe5HTHfrDARGLnQmmEHNQY",
    "name": "Jetty Police Outpost",
    "address": "8R84+2CQ, Mooring Rd, Chittagong, Bangladesh",
    "rating": "N/A",
    "contact_number": "N/A",
    "coordinates": {
      "lat": 22.3150769,
      "lng": 91.8061161
    }
  },
  {
    "place_id": "ChIJwbL4OjDfrDARi_UVSc9--a4",
    "name": "Bandar Police Station,Chattogram",
    "address": "Bandar Police Station, Chittagong, Bangladesh",
    "rating": "N/A",
    "contact_number": "01320-052899",
    "coordinates": {
      "lat": 22.3139563,
      "lng": 91.8033439
    }
  },
  {
    "place_id": "ChIJYRDqEdberDARogT588tGsTs",
    "name": "Office Deputy Police Commissioner, Port",
    "address": "8Q8R+VQ9, Port Colony Rd, Chittagong, Bangladesh",
    "rating": "N/A",
    "contact_number": "N/A",
    "coordinates": {
      "lat": 22.3171503,
      "lng": 91.7919999
    }
  },
  {
    "place_id": "ChIJxXllOzjZrDARB-P2jDF_uys",
    "name": "Halishahar Police Station",
    "address": "Lane No. 6, Block B ডাক্তার জাহাঙ্গীর কবির সড়ক, Chittagong, Bangladesh",
    "rating": "N/A",
    "contact_number": "N/A",
    "coordinates": {
      "lat": 22.3367695,
      "lng": 91.7749819
    }
  },
  {
    "place_id": "ChIJg8aNee_erDARk55kwmgyGV4",
    "name": "EPZ Police Station",
    "address": "7QRM+J3V Cepz, M. A Aziz Rd, Chittagong 4218, Bangladesh",
    "rating": "N/A",
    "contact_number": "031-741100",
    "coordinates": {
      "lat": 22.2916231,
      "lng": 91.7826675
    }
  },
  {
    "place_id": "ChIJP5iZ8VYfrTAR7BIHWk5tvRw",
    "name": "Anowara Police Station",
    "address": "6WF3+J7R, Anwara, Bangladesh",
    "rating": "N/A",
    "contact_number": "018 752 74496",
    "coordinates": {
      "lat": 22.224114,
      "lng": 91.9031473
    }
  },
  {
    "place_id": "ChIJKwcA-VPerDARc6Ysf42SAwU",
    "name": "Patenga Model police station",
    "address": "7QCQ+393, Chittagong, Bangladesh",
    "rating": "N/A",
    "contact_number": "03125-00026",
    "coordinates": {
      "lat": 22.2701491,
      "lng": 91.7884246
    }
  },
  {
    "place_id": "ChIJN0Edru7frDAR474MwOG8Y-k",
    "name": "Airport Police Fari",
    "address": "6RW9+52F, Chittagong, Bangladesh",
    "rating": "N/A",
    "contact_number": "01829-133530",
    "coordinates": {
      "lat": 22.2454397,
      "lng": 91.8175526
    }
  },
  {
    "place_id": "ChIJt6wAocMXrTARU2TOpkW1HJw",
    "name": "Chandanaish Police Station",
    "address": "6266+HF4, Road, Bangladesh",
    "rating": "N/A",
    "contact_number": "N/A",
    "coordinates": {
      "lat": 22.2113865,
      "lng": 92.01119279999999
    }
  },
  {
    "place_id": "ChIJSRMZSejMUjcR5Nga6dvj2aU",
    "name": "Kawkhali Police Station",
    "address": "J2MQ+2MC, Kawkhali, Bangladesh",
    "rating": "N/A",
    "contact_number": "01320-109533",
    "coordinates": {
      "lat": 22.6325607,
      "lng": 92.03913159999999
    }
  },
  {
    "place_id": "ChIJh90bUA_RrDARZTgm1rERZBA",
    "name": "Baroawlia Highway Police Station",
    "address": "Dhaka-Chittagong Hwy, Baraowlia, Sonaichari, Sitakunda, HM5Q+89P, N1, Barabkunda, Bangladesh",
    "rating": "N/A",
    "contact_number": "01733-231912",
    "coordinates": {
      "lat": 22.558331,
      "lng": 91.6884382
    }
  },
  {
    "place_id": "ChIJ8_sOwcwrUzcRFeDJJgqRZMc",
    "name": "Fatikchhari Police Station",
    "address": "MQQR+JRQ, Bibir Hat, Bangladesh",
    "rating": "N/A",
    "contact_number": "01713-373641",
    "coordinates": {
      "lat": 22.6890975,
      "lng": 91.79209949999999
    }
  },
  {
    "place_id": "ChIJZZ_ScV0tUzcRk9Zt6j0gtR0",
    "name": "Sitakundu pahar Police Camp",
    "address": "JMMM+JM2, Sitakund, Bangladesh",
    "rating": "N/A",
    "contact_number": "N/A",
    "coordinates": {
      "lat": 22.6340132,
      "lng": 91.6841448
    }
  },
  {
    "place_id": "ChIJT2sgnSNqrTARFgaTSed_VNI",
    "name": "Bandaban",
    "address": "56V8+QHX, Main Rd, Bandarban, Bangladesh",
    "rating": "N/A",
    "contact_number": "01713-373267",
    "coordinates": {
      "lat": 22.1944808,
      "lng": 92.21647750000001
    }
  },
  {
    "place_id": "ChIJNwe03ZsRrTAR2wb7VSJlom8",
    "name": "Satkania Thana",
    "address": "33F2+XV8, Bangladesh",
    "rating": "N/A",
    "contact_number": "01320-107782",
    "coordinates": {
      "lat": 22.0749076,
      "lng": 92.0522171
    }
  },
  {
    "place_id": "ChIJPZBZaR8vUzcRwL9L8TPITPw",
    "name": "Bhujpur Police Station",
    "address": "Bhujpur Police Station, Ramgarh Rd, Fatikchhari, Bangladesh",
    "rating": "N/A",
    "contact_number": "01320-107652",
    "coordinates": {
      "lat": 22.7577228,
      "lng": 91.7335141
    }
  },
  {
    "place_id": "ChIJKxNPyFAnrTAR7EWEfDZpdyc",
    "name": "Kotwali Police Station",
    "address": "8RMP+FR6, Abdur Rahman Rd, Chittagong 4300, Bangladesh",
    "rating": "N/A",
    "contact_number": "01713-373256",
    "coordinates": {
      "lat": 22.3336744,
      "lng": 91.83700189999999
    }
  },
  {
    "place_id": "ChIJnVY9L2IvrTAR9tzuuq19Wn0",
    "name": "Charandwip police box",
    "address": "CWCM+2WJ, Charandwip, Bangladesh",
    "rating": "N/A",
    "contact_number": "N/A",
    "coordinates": {
      "lat": 22.4200841,
      "lng": 91.93475339999999
    }
  },
  {
    "place_id": "ChIJHYAWKXcprTARa_BdDa4PUYI",
    "name": "নোয়াপাড়া পুলিশ ক্যাম্প",
    "address": "CWP3+Q66, Chittagong, Bangladesh",
    "rating": "N/A",
    "contact_number": "N/A",
    "coordinates": {
      "lat": 22.4369017,
      "lng": 91.90302
    }
  },
  {
    "place_id": "ChIJu36L-h0vrTARN7uA5J9rAdg",
    "name": "Cuet Police Camp",
    "address": "FX6C+4PW CUET, Pahartali 4349, Bangladesh",
    "rating": "N/A",
    "contact_number": "N/A",
    "coordinates": {
      "lat": 22.4603603,
      "lng": 91.9718424
    }
  },
  {
    "place_id": "ChIJP8Vs6D4mrTAR4dAeuHxOOmA",
    "name": "Kalurghat Police Check Post",
    "address": "9VXP+8M4, Chittagong, Bangladesh",
    "rating": "N/A",
    "contact_number": "N/A",
    "coordinates": {
      "lat": 22.3982525,
      "lng": 91.8866879
    }
  },
  {
    "place_id": "ChIJO1521YkorTAR3tyroWkl7o8",
    "name": "Modhunaghat Police Todonto Kendro",
    "address": "Modhunaghat,Kaptai Road,Hathazari, CVMC+99F, Chittagong 4337, Bangladesh",
    "rating": "N/A",
    "contact_number": "N/A",
    "coordinates": {
      "lat": 22.4334444,
      "lng": 91.8709135
    }
  },
  {
    "place_id": "ChIJrc6frX0nrTARYGn5Jyg2xcc",
    "name": "Panchlaish Model Police Station",
    "address": "9R7M+5J2, O.R. Nizam Rd, Chittagong 4203, Bangladesh",
    "rating": "N/A",
    "contact_number": "01713-373258",
    "coordinates": {
      "lat": 22.3628884,
      "lng": 91.8340049
    }
  },
  {
    "place_id": "ChIJO3AVpKfZrDARV05748sUvAI",
    "name": "Akbar Shah Police Station",
    "address": "Block C S Khulshi Rd, Chittagong 4207, Bangladesh",
    "rating": "N/A",
    "contact_number": "N/A",
    "coordinates": {
      "lat": 22.3737237,
      "lng": 91.78103039999999
    }
  },
  {
    "place_id": "ChIJJforZcrYrDARzv6jfucGi6M",
    "name": "Office of the Deputy Police Commissioner (Port)",
    "address": "8RG6+VPR, Agrabad Access Rd, Chittagong, Bangladesh",
    "rating": "N/A",
    "contact_number": "03125-14281",
    "coordinates": {
      "lat": 22.3272439,
      "lng": 91.8117544
    }
  },
  {
    "place_id": "ChIJBRBl4GQnrTARG6baQC_IBsM",
    "name": "Chawkbazar Police Station",
    "address": "9R5Q+2J8, Lal Chand Rd, Chittagong 4003, Bangladesh",
    "rating": "N/A",
    "contact_number": "03128-60133",
    "coordinates": {
      "lat": 22.357546,
      "lng": 91.83908439999999
    }
  },
  {
    "place_id": "ChIJG1aQclonrTARBQ420MF_j8c",
    "name": "Police Commissioner's Office",
    "address": "360 সি ডি এ এভেনিউ, Chittagong, Bangladesh",
    "rating": "N/A",
    "contact_number": "N/A",
    "coordinates": {
      "lat": 22.3359365,
      "lng": 91.8380435
    }
  },
  {
    "place_id": "ChIJCSDHx9ElrTAR82_uKIPLnXY",
    "name": "Boalkhali Post Office",
    "address": "Thana Rd, Boalkhali, Bangladesh",
    "rating": 3.7,
    "contact_number": "N/A",
    "coordinates": {
      "lat": 22.3779773,
      "lng": 91.9190417
    }
  },
  {
    "place_id": "ChIJ284LFxAnrTARigUun912zRw",
    "name": "Rahattarpul Police Bit",
    "address": "9V56+626, Chittagong, Bangladesh",
    "rating": "N/A",
    "contact_number": "01817-639262",
    "coordinates": {
      "lat": 22.3580349,
      "lng": 91.8600144
    }
  },
  {
    "place_id": "ChIJXbh5CXcnrTARuMehglZXiN0",
    "name": "Bahaddarhat Police Box",
    "address": "9R9V+46X, N1, Chittagong 4212, Bangladesh",
    "rating": "N/A",
    "contact_number": "031-654879",
    "coordinates": {
      "lat": 22.3678698,
      "lng": 91.8431238
    }
  },
  {
    "place_id": "ChIJw4EBXm3YrDARIuZaUYz1bNg",
    "name": "Police Station",
    "address": "9RVC+CP7, চট্রগ্রাম - রাঙামাটি-খাগড়াছড়ি মহাসড়ক, Chittagong, Bangladesh",
    "rating": "N/A",
    "contact_number": "01713-658951",
    "coordinates": {
      "lat": 22.3935408,
      "lng": 91.82178689999999
    }
  },
  {
    "place_id": "ChIJPeHwRHMsrTAR3UdnKTQeb58",
    "name": "Raozan Police Station",
    "address": "GWQ8+66M, Raozan, Bangladesh",
    "rating": "N/A",
    "contact_number": "01713-373639",
    "coordinates": {
      "lat": 22.5380795,
      "lng": 91.91553429999999
    }
  },
  {
    "place_id": "ChIJq2y2Bs8rrTARv8ScARHQPq0",
    "name": "Raozan Highway Police Station",
    "address": "GVHH+P87, Chittagong - Rangamati Hwy, Bangladesh",
    "rating": "N/A",
    "contact_number": "01733-231913",
    "coordinates": {
      "lat": 22.5292863,
      "lng": 91.87829099999999
    }
  },
  {
    "place_id": "ChIJt7MZpG8yrTARolIuHqQ7be8",
    "name": "Betbunia Police Station",
    "address": "Betbunitya, G2W2+92Q, Chittagong - Rangamati Road, Ranir Haat, Bangladesh",
    "rating": "N/A",
    "contact_number": "01769-690007",
    "coordinates": {
      "lat": 22.5459576,
      "lng": 92.00009709999999
    }
  },
  {
    "place_id": "ChIJ81l_Q6rYrDARuuLSVG_4oO8",
    "name": "Sadarghat Police Station",
    "address": "8RGJ+W4G, Strand Road, Chittagong 4000, Bangladesh",
    "rating": "N/A",
    "contact_number": "031-631414",
    "coordinates": {
      "lat": 22.3273165,
      "lng": 91.83032659999999
    }
  },
  {
    "place_id": "ChIJ34mAncfYrDAR9DVbATE1L14",
    "name": "Victim Support Center",
    "address": "Police Station, Double Mooring Police Station, Dhaka Trunk Rd, Chittagong 4100, Bangladesh",
    "rating": "N/A",
    "contact_number": "01819-830084",
    "coordinates": {
      "lat": 22.3385735,
      "lng": 91.8113521
    }
  },
  {
    "place_id": "ChIJCZm5j-LYrDARYPjAk_44aUU",
    "name": "Pahartali Police Bit",
    "address": "9Q5V+299, Shahid Ln, Chittagong, Bangladesh",
    "rating": "N/A",
    "contact_number": "01820-809947",
    "coordinates": {
      "lat": 22.3575346,
      "lng": 91.7934928
    }
  },
  {
    "place_id": "ChIJq-CTV43YrDARbz6boZ0mklQ",
    "name": "Police Bureau of Investigation",
    "address": "Diamond Touch, 360 Dhaka Trunk Rd, Chittagong, Bangladesh",
    "rating": "N/A",
    "contact_number": "01769-690333",
    "coordinates": {
      "lat": 22.3473366,
      "lng": 91.7986179
    }
  },
  {
    "place_id": "ChIJKyaMlBzZrDARUsqFCAZJBEo",
    "name": "Pahartali Police Station",
    "address": "9Q5Q+4MR, থানা রোড, Chittagong, Bangladesh",
    "rating": "N/A",
    "contact_number": "01320-052797",
    "coordinates": {
      "lat": 22.3578543,
      "lng": 91.78914639999999
    }
  },
  {
    "place_id": "ChIJh_vBIhDZrDARRU5SUDFl_bE",
    "name": "Alongkar Police Box",
    "address": "Dhaka - Chittagong Highway, 9Q5J+JPF, Near Alankar Circle, Chittagong 4217, Bangladesh",
    "rating": "N/A",
    "contact_number": "01617-820858",
    "coordinates": {
      "lat": 22.3590683,
      "lng": 91.78179089999999
    }
  },
  {
    "place_id": "ChIJhZe5HTHfrDARGLnQmmEHNQY",
    "name": "Jetty Police Outpost",
    "address": "8R84+2CQ, Mooring Rd, Chittagong, Bangladesh",
    "rating": "N/A",
    "contact_number": "N/A",
    "coordinates": {
      "lat": 22.3150769,
      "lng": 91.8061161
    }
  },
  {
    "place_id": "ChIJwbL4OjDfrDARi_UVSc9--a4",
    "name": "Bandar Police Station,Chattogram",
    "address": "Bandar Police Station, Chittagong, Bangladesh",
    "rating": "N/A",
    "contact_number": "01320-052899",
    "coordinates": {
      "lat": 22.3139563,
      "lng": 91.8033439
    }
  },
  {
    "place_id": "ChIJYRDqEdberDARogT588tGsTs",
    "name": "Office Deputy Police Commissioner, Port",
    "address": "8Q8R+VQ9, Port Colony Rd, Chittagong, Bangladesh",
    "rating": "N/A",
    "contact_number": "N/A",
    "coordinates": {
      "lat": 22.3171503,
      "lng": 91.7919999
    }
  },
  {
    "place_id": "ChIJxXllOzjZrDARB-P2jDF_uys",
    "name": "Halishahar Police Station",
    "address": "Lane No. 6, Block B ডাক্তার জাহাঙ্গীর কবির সড়ক, Chittagong, Bangladesh",
    "rating": "N/A",
    "contact_number": "N/A",
    "coordinates": {
      "lat": 22.3367695,
      "lng": 91.7749819
    }
  },
  {
    "place_id": "ChIJg8aNee_erDARk55kwmgyGV4",
    "name": "EPZ Police Station",
    "address": "7QRM+J3V Cepz, M. A Aziz Rd, Chittagong 4218, Bangladesh",
    "rating": "N/A",
    "contact_number": "031-741100",
    "coordinates": {
      "lat": 22.2916231,
      "lng": 91.7826675
    }
  },
  {
    "place_id": "ChIJP5iZ8VYfrTAR7BIHWk5tvRw",
    "name": "Anowara Police Station",
    "address": "6WF3+J7R, Anwara, Bangladesh",
    "rating": "N/A",
    "contact_number": "018 752 74496",
    "coordinates": {
      "lat": 22.224114,
      "lng": 91.9031473
    }
  },
  {
    "place_id": "ChIJKwcA-VPerDARc6Ysf42SAwU",
    "name": "Patenga Model police station",
    "address": "7QCQ+393, Chittagong, Bangladesh",
    "rating": "N/A",
    "contact_number": "03125-00026",
    "coordinates": {
      "lat": 22.2701491,
      "lng": 91.7884246
    }
  },
  {
    "place_id": "ChIJN0Edru7frDAR474MwOG8Y-k",
    "name": "Airport Police Fari",
    "address": "6RW9+52F, Chittagong, Bangladesh",
    "rating": "N/A",
    "contact_number": "01829-133530",
    "coordinates": {
      "lat": 22.2454397,
      "lng": 91.8175526
    }
  },
  {
    "place_id": "ChIJt6wAocMXrTARU2TOpkW1HJw",
    "name": "Chandanaish Police Station",
    "address": "6266+HF4, Road, Bangladesh",
    "rating": "N/A",
    "contact_number": "N/A",
    "coordinates": {
      "lat": 22.2113865,
      "lng": 92.01119279999999
    }
  },
  {
    "place_id": "ChIJSRMZSejMUjcR5Nga6dvj2aU",
    "name": "Kawkhali Police Station",
    "address": "J2MQ+2MC, Kawkhali, Bangladesh",
    "rating": "N/A",
    "contact_number": "01320-109533",
    "coordinates": {
      "lat": 22.6325607,
      "lng": 92.03913159999999
    }
  },
  {
    "place_id": "ChIJh90bUA_RrDARZTgm1rERZBA",
    "name": "Baroawlia Highway Police Station",
    "address": "Dhaka-Chittagong Hwy, Baraowlia, Sonaichari, Sitakunda, HM5Q+89P, N1, Barabkunda, Bangladesh",
    "rating": "N/A",
    "contact_number": "01733-231912",
    "coordinates": {
      "lat": 22.558331,
      "lng": 91.6884382
    }
  },
  {
    "place_id": "ChIJ8_sOwcwrUzcRFeDJJgqRZMc",
    "name": "Fatikchhari Police Station",
    "address": "MQQR+JRQ, Bibir Hat, Bangladesh",
    "rating": "N/A",
    "contact_number": "01713-373641",
    "coordinates": {
      "lat": 22.6890975,
      "lng": 91.79209949999999
    }
  },
  {
    "place_id": "ChIJZZ_ScV0tUzcRk9Zt6j0gtR0",
    "name": "Sitakundu pahar Police Camp",
    "address": "JMMM+JM2, Sitakund, Bangladesh",
    "rating": "N/A",
    "contact_number": "N/A",
    "coordinates": {
      "lat": 22.6340132,
      "lng": 91.6841448
    }
  },
  {
    "place_id": "ChIJT2sgnSNqrTARFgaTSed_VNI",
    "name": "Bandaban",
    "address": "56V8+QHX, Main Rd, Bandarban, Bangladesh",
    "rating": "N/A",
    "contact_number": "01713-373267",
    "coordinates": {
      "lat": 22.1944808,
      "lng": 92.21647750000001
    }
  },
  {
    "place_id": "ChIJNwe03ZsRrTAR2wb7VSJlom8",
    "name": "Satkania Thana",
    "address": "33F2+XV8, Bangladesh",
    "rating": "N/A",
    "contact_number": "01320-107782",
    "coordinates": {
      "lat": 22.0749076,
      "lng": 92.0522171
    }
  },
  {
    "place_id": "ChIJPZBZaR8vUzcRwL9L8TPITPw",
    "name": "Bhujpur Police Station",
    "address": "Bhujpur Police Station, Ramgarh Rd, Fatikchhari, Bangladesh",
    "rating": "N/A",
    "contact_number": "01320-107652",
    "coordinates": {
      "lat": 22.7577228,
      "lng": 91.7335141
    }
  },
  {
    "place_id": "ChIJKxNPyFAnrTAR7EWEfDZpdyc",
    "name": "Kotwali Police Station",
    "address": "8RMP+FR6, Abdur Rahman Rd, Chittagong 4300, Bangladesh",
    "rating": "N/A",
    "contact_number": "01713-373256",
    "coordinates": {
      "lat": 22.3336744,
      "lng": 91.83700189999999
    }
  },
  {
    "place_id": "ChIJnVY9L2IvrTAR9tzuuq19Wn0",
    "name": "Charandwip police box",
    "address": "CWCM+2WJ, Charandwip, Bangladesh",
    "rating": "N/A",
    "contact_number": "N/A",
    "coordinates": {
      "lat": 22.4200841,
      "lng": 91.93475339999999
    }
  },
  {
    "place_id": "ChIJHYAWKXcprTARa_BdDa4PUYI",
    "name": "নোয়াপাড়া পুলিশ ক্যাম্প",
    "address": "CWP3+Q66, Chittagong, Bangladesh",
    "rating": "N/A",
    "contact_number": "N/A",
    "coordinates": {
      "lat": 22.4369017,
      "lng": 91.90302
    }
  },
  {
    "place_id": "ChIJu36L-h0vrTARN7uA5J9rAdg",
    "name": "Cuet Police Camp",
    "address": "FX6C+4PW CUET, Pahartali 4349, Bangladesh",
    "rating": "N/A",
    "contact_number": "N/A",
    "coordinates": {
      "lat": 22.4603603,
      "lng": 91.9718424
    }
  },
  {
    "place_id": "ChIJP8Vs6D4mrTAR4dAeuHxOOmA",
    "name": "Kalurghat Police Check Post",
    "address": "9VXP+8M4, Chittagong, Bangladesh",
    "rating": "N/A",
    "contact_number": "N/A",
    "coordinates": {
      "lat": 22.3982525,
      "lng": 91.8866879
    }
  },
  {
    "place_id": "ChIJO1521YkorTAR3tyroWkl7o8",
    "name": "Modhunaghat Police Todonto Kendro",
    "address": "Modhunaghat,Kaptai Road,Hathazari, CVMC+99F, Chittagong 4337, Bangladesh",
    "rating": "N/A",
    "contact_number": "N/A",
    "coordinates": {
      "lat": 22.4334444,
      "lng": 91.8709135
    }
  },
  {
    "place_id": "ChIJQXRghLUnrTAROLPe5Fp-Qqw",
    "name": "Mohora Police Check Post",
    "address": "9VV9+J5Q, Chittagong - Cox's Bazar Highway, Chittagong, Bangladesh",
    "rating": "N/A",
    "contact_number": "N/A",
    "coordinates": {
      "lat": 22.3940838,
      "lng": 91.8679824
    }
  },
  {
    "place_id": "ChIJ2f2ZEgAlrTARGrTVSJSis7o",
    "name": "বোয়ালখালী, পটিয়া মিলিটারী পুল",
    "address": "Military Pool, Arkan Rd, Bangladesh",
    "rating": "N/A",
    "contact_number": "N/A",
    "coordinates": {
      "lat": 22.3406264,
      "lng": 91.9171089
    }
  },
  {
    "place_id": "ChIJmWFxOUAnrTARKu6J-OSUhwE",
    "name": "POLICE BOX বহদ্দারহাট বাসটার্মিনাল আঞ্চলিক পুলিশ বক্স",
    "address": "9VF2+C4P, Chittagong, Bangladesh",
    "rating": 5,
    "contact_number": "N/A",
    "coordinates": {
      "lat": 22.37338699999999,
      "lng": 91.8505023
    }
  },
  {
    "place_id": "ChIJt3Asr3UnrTARLKai9ziXvjA",
    "name": "New Candgaon Police Station",
    "address": "9R9X+CCF, Chittagong, Bangladesh",
    "rating": "N/A",
    "contact_number": "N/A",
    "coordinates": {
      "lat": 22.36856960000001,
      "lng": 91.84853749999999
    }
  },
  {
    "place_id": "ChIJbx9Uw0wnrTARkGoge97u4uw",
    "name": "Edris computer",
    "address": "9V34+6F5, Chittagong 4000, Bangladesh",
    "rating": "N/A",
    "contact_number": "N/A",
    "coordinates": {
      "lat": 22.3530007,
      "lng": 91.8562218
    }
  },
  {
    "place_id": "ChIJhfBsyBQnrTARO9zaVLkA8HQ",
    "name": "BAKALIA POLICE STATION",
    "address": "8VW6+8MP, Chittagong, Bangladesh",
    "rating": 3,
    "contact_number": "031-616346",
    "coordinates": {
      "lat": 22.3458314,
      "lng": 91.8617111
    }
  },
  {
    "place_id": "ChIJ85d1IVwxrTARJnHF3zmp9n8",
    "name": "Shilok Investigation Center",
    "address": "C3V6+Q38, Bangladesh",
    "rating": "N/A",
    "contact_number": "N/A",
    "coordinates": {
      "lat": 22.4444005,
      "lng": 92.0601957
    }
  },
  {
    "place_id": "ChIJp2r4b-wnrTAR_0DVxwGjc1o",
    "name": "Muradpur Police Box",
    "address": "70 CDA Ave, Chittagong 4209, Bangladesh",
    "rating": 2,
    "contact_number": "01887-173313",
    "coordinates": {
      "lat": 22.3692875,
      "lng": 91.8333756
    }
  },
  {
    "place_id": "ChIJ37TPQADZrDARLoykOfgwuZg",
    "name": "অক্সিজেন ট্রাফিক পুলিশ বক্স",
    "address": "9RVC+CGP, Chittagong, Bangladesh",
    "rating": "N/A",
    "contact_number": "N/A",
    "coordinates": {
      "lat": 22.3935842,
      "lng": 91.8212679
    }
  },
  {
    "place_id": "ChIJF8kbiJ7ZrDAR8Q4lGHyhs6U",
    "name": "মেট্রোপলিটন পুলিশ ফাঁড়ি",
    "address": "CR29+RHJ, Chittagong, Bangladesh",
    "rating": "N/A",
    "contact_number": "N/A",
    "coordinates": {
      "lat": 22.4020948,
      "lng": 91.8188934
    }
  },
  {
    "place_id": "ChIJIweikH0nrTARlBoYKWUy_7w",
    "name": "Deputy Police Commissioner's Office, CMP (North Division)",
    "address": "9R7M+637, O.R. Nizam Rd, Chittagong, Bangladesh",
    "rating": "N/A",
    "contact_number": "N/A",
    "coordinates": {
      "lat": 22.3630431,
      "lng": 91.83267149999999
    }
  },
  {
    "place_id": "ChIJx-9nLIfYrDARKEn3dBVqMao",
    "name": "Railway Police Phari",
    "address": "Sholoshohor Rail Station, 9R9G+FPC, Chittagong 4211, Bangladesh",
    "rating": "N/A",
    "contact_number": "01763-471550",
    "coordinates": {
      "lat": 22.3686923,
      "lng": 91.8267697
    }
  },
  {
    "place_id": "ChIJzxFoMTcnrTAREY3Z3_QroB8",
    "name": "শান্তি সওদাগর কলোনী",
    "address": "8VM4+796, Chittagong, Bangladesh",
    "rating": "N/A",
    "contact_number": "01820-500352",
    "coordinates": {
      "lat": 22.3331703,
      "lng": 91.85587609999999
    }
  },
  {
    "place_id": "ChIJzRk65WTYrDARhda9k9NTGNA",
    "name": "Bayazid Bostami Police Station",
    "address": "9RHC+Q4V, Baizid Thana Rd, Chittagong 4210, Bangladesh",
    "rating": "N/A",
    "contact_number": "01713-373262",
    "coordinates": {
      "lat": 22.3794802,
      "lng": 91.8203098
    }
  },
  {
    "place_id": "ChIJ44pjCfzZrDARUsIKO26hvFw",
    "name": "Probortok Traffic Box",
    "address": "9R6H+CG5, Chittagong, Bangladesh",
    "rating": "N/A",
    "contact_number": "01919-911911",
    "coordinates": {
      "lat": 22.3610033,
      "lng": 91.8288546
    }
  },
  {
    "place_id": "ChIJPWgrpSsxrTARftpU6wanqPk",
    "name": "Rangunia Police Station",
    "address": "F397+298, Chittagong - Rangunia Hwy, Rangunia, Bangladesh",
    "rating": "N/A",
    "contact_number": "01729-688565",
    "coordinates": {
      "lat": 22.467541,
      "lng": 92.06345739999999
    }
  },
  {
    "place_id": "ChIJ-1Hj4oPYrDARzPUGcZ4f0U8",
    "name": "Police Super office, Chattogram",
    "address": "Pasha Bhavan, 2 Lane No. 2, Chittagong, Bangladesh",
    "rating": "N/A",
    "contact_number": "N/A",
    "coordinates": {
      "lat": 22.3657741,
      "lng": 91.82400609999999
    }
  },
  {
    "place_id": "ChIJ6fnRr2nYrDAR4BJB6eKZVbU",
    "name": "Bangladesh Armed Police Chittagong Range",
    "address": "9RP7+PMP, Chittagong, Bangladesh",
    "rating": "N/A",
    "contact_number": "N/A",
    "coordinates": {
      "lat": 22.386829,
      "lng": 91.8141962
    }
  },
  {
    "place_id": "ChIJO-mVSZrZrDARQOEyZWhKiHQ",
    "name": "2no Gate Traffic Police Box",
    "address": "9R8F+F6R, Chittagong, Bangladesh",
    "rating": 3.6,
    "contact_number": "N/A",
    "coordinates": {
      "lat": 22.3662261,
      "lng": 91.82301129999999
    }
  },
  {
    "place_id": "ChIJLWDA2HcnrTAR1vznIoRraZQ",
    "name": "শহীদ বশরুজ্জামান চত্বর ট্রাফিক পুলিশ বাক্স",
    "address": "8VJ2+CJP, Karnaphuli 3rd Bridge, Chittagong, Bangladesh",
    "rating": 5,
    "contact_number": "N/A",
    "coordinates": {
      "lat": 22.3310896,
      "lng": 91.8515929
    }
  },
  {
    "place_id": "ChIJ7bcsYC9_VDcR7xNO-CPdBIA",
    "name": "Kandirpar Police Outpost",
    "address": "F56J+782, R141, Comilla, Bangladesh",
    "rating": "N/A",
    "contact_number": "0816-5036",
    "coordinates": {
      "lat": 23.46063059999999,
      "lng": 91.1807751
    }
  },
  {
    "place_id": "ChIJdyzRRbxpVDcRriJlOn65SlU",
    "name": "Muradnagar Police Station",
    "address": "JWQJ+2FW, High School Road, মুরাদনগর 3540, Bangladesh",
    "rating": "N/A",
    "contact_number": "01713-373695",
    "coordinates": {
      "lat": 23.6376025,
      "lng": 90.9312116
    }
  },
  {
    "place_id": "ChIJ9TKOEkF_VDcRZztzlUk5utY",
    "name": "Police Station",
    "address": "F53W+6H6, Comilla 3500, Bangladesh",
    "rating": "N/A",
    "contact_number": "01756-134427",
    "coordinates": {
      "lat": 23.453035,
      "lng": 91.1963979
    }
  },
  {
    "place_id": "ChIJ3xxPRZp-VDcRt9xLXg5o1es",
    "name": "Kotbari Police Outpost",
    "address": "C4RV+H7W, Cumilla - Kotbari Rd, Kotbari, Bangladesh",
    "rating": "N/A",
    "contact_number": "01713-373700",
    "coordinates": {
      "lat": 23.441494,
      "lng": 91.1431983
    }
  },
  {
    "place_id": "ChIJOZgOjf57VDcRkPJjz22ZXSs",
    "name": "ময়নামতি হাইওয়ে থানা",
    "address": "F4HJ+7XF, Bangladesh",
    "rating": 3.5,
    "contact_number": "01818-212396",
    "coordinates": {
      "lat": 23.4781901,
      "lng": 91.1324125
    }
  },
  {
    "place_id": "ChIJ_es4MnBkVDcRqzKhIRY0tmg",
    "name": "Chandina Model Police Station",
    "address": "F2P5+59G, Chandina Grand Trunk Rd, Chandina, Bangladesh",
    "rating": "N/A",
    "contact_number": "01713-373692",
    "coordinates": {
      "lat": 23.48543279999999,
      "lng": 91.0084665
    }
  },
  {
    "place_id": "ChIJg627R1N-VDcRWRP64vDn5k8",
    "name": "Sadar South Police Station",
    "address": "C59F+76M, N1, Paduar Bazar Bishwa Road 3500, Bangladesh",
    "rating": "N/A",
    "contact_number": "01713-373700",
    "coordinates": {
      "lat": 23.4182152,
      "lng": 91.17305870000001
    }
  },
  {
    "place_id": "ChIJ8Rys-yl_VDcRbFGTQ9AoXLI",
    "name": "Additional Police Super, Sadar Circle Office",
    "address": "F58F+PJQ, CML03, Comilla 3500, Bangladesh",
    "rating": "N/A",
    "contact_number": "01713-373682",
    "coordinates": {
      "lat": 23.4668442,
      "lng": 91.17411229999999
    }
  },
  {
    "place_id": "ChIJqTBdJy1_VDcRNeWd2FkG6NY",
    "name": "কোর্ট পুলিশ",
    "address": "কুমিল্লা জজ কোর্ট, CML26, Comilla, Bangladesh",
    "rating": "N/A",
    "contact_number": "0816-8888",
    "coordinates": {
      "lat": 23.47216689999999,
      "lng": 91.1809548
    }
  },
  {
    "place_id": "ChIJZfHrJDF_VDcR6KDqTH22kDA",
    "name": "Kotwali Model Police Station, Cumilla",
    "address": "F57P+WWC, Comilla, Bangladesh",
    "rating": "N/A",
    "contact_number": "01320-113996",
    "coordinates": {
      "lat": 23.4648126,
      "lng": 91.1872674
    }
  },
  {
    "place_id": "ChIJV3xgSRx6VDcRxLp998Sho5s",
    "name": "Burichang Police Station",
    "address": "H43M+329, Kalikapur Rd, Burichang, Bangladesh",
    "rating": "N/A",
    "contact_number": "01320-114152",
    "coordinates": {
      "lat": 23.5526576,
      "lng": 91.1325949
    }
  },
  {
    "place_id": "ChIJn-yHOGGEVDcRsEf0gNuMxe8",
    "name": "Laksam Police Station",
    "address": "64R9+6R4, Exit Road, Laksam, Bangladesh",
    "rating": "N/A",
    "contact_number": "01713-373689",
    "coordinates": {
      "lat": 23.2405212,
      "lng": 91.1195843
    }
  },
  {
    "place_id": "ChIJ4wUQPbqNVDcRFhgSvPj4xGw",
    "name": "Shaharsti Thana Police Station",
    "address": "6XF4+6X4, A357, Shahrasti, Bangladesh",
    "rating": "N/A",
    "contact_number": "01320-116080",
    "coordinates": {
      "lat": 23.2230243,
      "lng": 90.9574648
    }
  },
  {
    "place_id": "ChIJj_XRe-ZaVDcRnxMjHuu34ko",
    "name": "গৌরীপুর পুলিশ তদন্ত কেন্দ্র",
    "address": "GQRM+HCV, Gouripur - Homna Hwy, Gouripur 3517, Bangladesh",
    "rating": "N/A",
    "contact_number": "02-9561967",
    "coordinates": {
      "lat": 23.54149709999999,
      "lng": 90.78354709999999
    }
  },
  {
    "place_id": "ChIJ_d_8BIdsVDcRnkCZ4QZtgL4",
    "name": "বাঙ্গরা থানা",
    "address": "PX7Q+XGM, Barashalghar - Bangora Road, Bangura, Bangladesh",
    "rating": "N/A",
    "contact_number": "01907-132625",
    "coordinates": {
      "lat": 23.7149598,
      "lng": 90.9887885
    }
  },
  {
    "place_id": "ChIJD51OIw57UzcRcdBDsfNzvDc",
    "name": "Chauddagram Police Station",
    "address": "68F7+4VC, Dhaka - Chittagong Hwy, Chauddagram, Bangladesh",
    "rating": "N/A",
    "contact_number": "01320-114027",
    "coordinates": {
      "lat": 23.2228042,
      "lng": 91.31464070000001
    }
  },
  {
    "place_id": "ChIJ44SMnLl0VDcRL98t0mPAuy8",
    "name": "Kasba Police Station",
    "address": "P5V2+V44, Kasba, Bangladesh",
    "rating": "N/A",
    "contact_number": "01713-373736",
    "coordinates": {
      "lat": 23.7446401,
      "lng": 91.15034039999999
    }
  },
  {
    "place_id": "ChIJ32_cOFBQVDcR21r4nRvQp-U",
    "name": "Daudkandi Highway Police Station",
    "address": "GPHW+5GP, Bangladesh",
    "rating": "N/A",
    "contact_number": "01828-387249",
    "coordinates": {
      "lat": 23.5279647,
      "lng": 90.746321
    }
  },
  {
    "place_id": "ChIJF-0k4cH0UzcRYhH3XBkDmX8",
    "name": "Amtali Police Station",
    "address": "Q7J8+JCV, Arundhauti Nagar, Madhupur, Tripura 799014, India",
    "rating": "N/A",
    "contact_number": "N/A",
    "coordinates": {
      "lat": 23.7816113,
      "lng": 91.2660566
    }
  },
  {
    "place_id": "ChIJ-VJUXfiYVDcRpZ2E2PtjMOQ",
    "name": "Sonaimuri Police Station",
    "address": "23PX+375, Sonaimuri Bypass Road, Sonaimuri, Bangladesh",
    "rating": "N/A",
    "contact_number": "01741-882982",
    "coordinates": {
      "lat": 23.0351454,
      "lng": 91.0982219
    }
  },
  {
    "place_id": "ChIJ7bcsYC9_VDcR7xNO-CPdBIA",
    "name": "Kandirpar Police Outpost",
    "address": "F56J+782, R141, Comilla, Bangladesh",
    "rating": "N/A",
    "contact_number": "0816-5036",
    "coordinates": {
      "lat": 23.46063059999999,
      "lng": 91.1807751
    }
  },
  {
    "place_id": "ChIJdyzRRbxpVDcRriJlOn65SlU",
    "name": "Muradnagar Police Station",
    "address": "JWQJ+2FW, High School Road, মুরাদনগর 3540, Bangladesh",
    "rating": "N/A",
    "contact_number": "01713-373695",
    "coordinates": {
      "lat": 23.6376025,
      "lng": 90.9312116
    }
  },
  {
    "place_id": "ChIJ9TKOEkF_VDcRZztzlUk5utY",
    "name": "Police Station",
    "address": "F53W+6H6, Comilla 3500, Bangladesh",
    "rating": "N/A",
    "contact_number": "01756-134427",
    "coordinates": {
      "lat": 23.453035,
      "lng": 91.1963979
    }
  },
  {
    "place_id": "ChIJ3xxPRZp-VDcRt9xLXg5o1es",
    "name": "Kotbari Police Outpost",
    "address": "C4RV+H7W, Cumilla - Kotbari Rd, Kotbari, Bangladesh",
    "rating": "N/A",
    "contact_number": "01713-373700",
    "coordinates": {
      "lat": 23.441494,
      "lng": 91.1431983
    }
  },
  {
    "place_id": "ChIJOZgOjf57VDcRkPJjz22ZXSs",
    "name": "ময়নামতি হাইওয়ে থানা",
    "address": "F4HJ+7XF, Bangladesh",
    "rating": 3.5,
    "contact_number": "01818-212396",
    "coordinates": {
      "lat": 23.4781901,
      "lng": 91.1324125
    }
  },
  {
    "place_id": "ChIJ_es4MnBkVDcRqzKhIRY0tmg",
    "name": "Chandina Model Police Station",
    "address": "F2P5+59G, Chandina Grand Trunk Rd, Chandina, Bangladesh",
    "rating": "N/A",
    "contact_number": "01713-373692",
    "coordinates": {
      "lat": 23.48543279999999,
      "lng": 91.0084665
    }
  },
  {
    "place_id": "ChIJg627R1N-VDcRWRP64vDn5k8",
    "name": "Sadar South Police Station",
    "address": "C59F+76M, N1, Paduar Bazar Bishwa Road 3500, Bangladesh",
    "rating": "N/A",
    "contact_number": "01713-373700",
    "coordinates": {
      "lat": 23.4182152,
      "lng": 91.17305870000001
    }
  },
  {
    "place_id": "ChIJ8Rys-yl_VDcRbFGTQ9AoXLI",
    "name": "Additional Police Super, Sadar Circle Office",
    "address": "F58F+PJQ, CML03, Comilla 3500, Bangladesh",
    "rating": "N/A",
    "contact_number": "01713-373682",
    "coordinates": {
      "lat": 23.4668442,
      "lng": 91.17411229999999
    }
  },
  {
    "place_id": "ChIJqTBdJy1_VDcRNeWd2FkG6NY",
    "name": "কোর্ট পুলিশ",
    "address": "কুমিল্লা জজ কোর্ট, CML26, Comilla, Bangladesh",
    "rating": "N/A",
    "contact_number": "0816-8888",
    "coordinates": {
      "lat": 23.47216689999999,
      "lng": 91.1809548
    }
  },
  {
    "place_id": "ChIJZfHrJDF_VDcR6KDqTH22kDA",
    "name": "Kotwali Model Police Station, Cumilla",
    "address": "F57P+WWC, Comilla, Bangladesh",
    "rating": "N/A",
    "contact_number": "01320-113996",
    "coordinates": {
      "lat": 23.4648126,
      "lng": 91.1872674
    }
  },
  {
    "place_id": "ChIJV3xgSRx6VDcRxLp998Sho5s",
    "name": "Burichang Police Station",
    "address": "H43M+329, Kalikapur Rd, Burichang, Bangladesh",
    "rating": "N/A",
    "contact_number": "01320-114152",
    "coordinates": {
      "lat": 23.5526576,
      "lng": 91.1325949
    }
  },
  {
    "place_id": "ChIJn-yHOGGEVDcRsEf0gNuMxe8",
    "name": "Laksam Police Station",
    "address": "64R9+6R4, Exit Road, Laksam, Bangladesh",
    "rating": "N/A",
    "contact_number": "01713-373689",
    "coordinates": {
      "lat": 23.2405212,
      "lng": 91.1195843
    }
  },
  {
    "place_id": "ChIJ4wUQPbqNVDcRFhgSvPj4xGw",
    "name": "Shaharsti Thana Police Station",
    "address": "6XF4+6X4, A357, Shahrasti, Bangladesh",
    "rating": "N/A",
    "contact_number": "01320-116080",
    "coordinates": {
      "lat": 23.2230243,
      "lng": 90.9574648
    }
  },
  {
    "place_id": "ChIJj_XRe-ZaVDcRnxMjHuu34ko",
    "name": "গৌরীপুর পুলিশ তদন্ত কেন্দ্র",
    "address": "GQRM+HCV, Gouripur - Homna Hwy, Gouripur 3517, Bangladesh",
    "rating": "N/A",
    "contact_number": "02-9561967",
    "coordinates": {
      "lat": 23.54149709999999,
      "lng": 90.78354709999999
    }
  },
  {
    "place_id": "ChIJ_d_8BIdsVDcRnkCZ4QZtgL4",
    "name": "বাঙ্গরা থানা",
    "address": "PX7Q+XGM, Barashalghar - Bangora Road, Bangura, Bangladesh",
    "rating": "N/A",
    "contact_number": "01907-132625",
    "coordinates": {
      "lat": 23.7149598,
      "lng": 90.9887885
    }
  },
  {
    "place_id": "ChIJD51OIw57UzcRcdBDsfNzvDc",
    "name": "Chauddagram Police Station",
    "address": "68F7+4VC, Dhaka - Chittagong Hwy, Chauddagram, Bangladesh",
    "rating": "N/A",
    "contact_number": "01320-114027",
    "coordinates": {
      "lat": 23.2228042,
      "lng": 91.31464070000001
    }
  },
  {
    "place_id": "ChIJ44SMnLl0VDcRL98t0mPAuy8",
    "name": "Kasba Police Station",
    "address": "P5V2+V44, Kasba, Bangladesh",
    "rating": "N/A",
    "contact_number": "01713-373736",
    "coordinates": {
      "lat": 23.7446401,
      "lng": 91.15034039999999
    }
  },
  {
    "place_id": "ChIJ32_cOFBQVDcR21r4nRvQp-U",
    "name": "Daudkandi Highway Police Station",
    "address": "GPHW+5GP, Bangladesh",
    "rating": "N/A",
    "contact_number": "01828-387249",
    "coordinates": {
      "lat": 23.5279647,
      "lng": 90.746321
    }
  },
  {
    "place_id": "ChIJF-0k4cH0UzcRYhH3XBkDmX8",
    "name": "Amtali Police Station",
    "address": "Q7J8+JCV, Arundhauti Nagar, Madhupur, Tripura 799014, India",
    "rating": "N/A",
    "contact_number": "N/A",
    "coordinates": {
      "lat": 23.7816113,
      "lng": 91.2660566
    }
  },
  {
    "place_id": "ChIJ-VJUXfiYVDcRpZ2E2PtjMOQ",
    "name": "Sonaimuri Police Station",
    "address": "23PX+375, Sonaimuri Bypass Road, Sonaimuri, Bangladesh",
    "rating": "N/A",
    "contact_number": "01741-882982",
    "coordinates": {
      "lat": 23.0351454,
      "lng": 91.0982219
    }
  },
  {
    "place_id": "ChIJ2XT_BCdyUzcRWq1fJqKdJuQ",
    "name": "Parshuram Model Thana",
    "address": "6C8W+X59, Z1035, Parshuram, Bangladesh",
    "rating": "N/A",
    "contact_number": "01713-373781",
    "coordinates": {
      "lat": 23.2174047,
      "lng": 91.445486
    }
  },
  {
    "place_id": "ChIJb2mGCm1SVDcRgIZre__4wnA",
    "name": "Gazaria Police Station",
    "address": "HM54+5CJ, Hospital Rd, Bangladesh",
    "rating": 4,
    "contact_number": "01320-093431",
    "coordinates": {
      "lat": 23.5579658,
      "lng": 90.65600420000001
    }
  },
  {
    "place_id": "ChIJG5U6VoD8VDcRbWTHG6Zy29o",
    "name": "Office of the Superintendent of Police",
    "address": "Sologhar, Chandpur, 6MPF+6X9, চাঁদপুর 3600, Bangladesh",
    "rating": "N/A",
    "contact_number": "01713-373705",
    "coordinates": {
      "lat": 23.2355281,
      "lng": 90.6749876
    }
  },
  {
    "place_id": "ChIJBTve4Zo4VDcRkCN2hjZUSqc",
    "name": "Bancharampur Police Station",
    "address": "QRC2+4V2, Salimabad - Rupasdi Rd, Bancharampur, Bangladesh",
    "rating": "N/A",
    "contact_number": "01713-373735",
    "coordinates": {
      "lat": 23.7702642,
      "lng": 90.8021306
    }
  },
  {
    "place_id": "ChIJ90TluJzlVDcRRQ1Di8zXwEs",
    "name": "Faridganj Police Station",
    "address": "4PQV+46C, Faridganj, Bangladesh",
    "rating": "N/A",
    "contact_number": "01854-426338",
    "coordinates": {
      "lat": 23.1378022,
      "lng": 90.74301950000002
    }
  },
  {
    "place_id": "ChIJJ52LtRL0UzcRIspOhSjNjMM",
    "name": "West Agartala Police Station",
    "address": "Agartala West, R7HH+V8G, Hari Ganga Basak Road, Post Office Chowmohani, Dhaleswar, Agartala, Tripura 799001, India",
    "rating": "N/A",
    "contact_number": "N/A",
    "coordinates": {
      "lat": 23.8296751,
      "lng": 91.2783183
    }
  },
  {
    "place_id": "ChIJ7yQGwuIJVDcRYdS2dhPhfb8",
    "name": "Akhaura Police Station",
    "address": "V686+X7Q, Akhaura, Bangladesh",
    "rating": "N/A",
    "contact_number": "01713-373731",
    "coordinates": {
      "lat": 23.8674652,
      "lng": 91.2107431
    }
  },
  {
    "place_id": "ChIJT-DJW_CLUzcRlZFLbuxpvgQ",
    "name": "Bishalgarh Police Station",
    "address": "M7FJ+HMM, NH 44, Bishalgarh, Laxmibil, Tripura 799102, India",
    "rating": 5,
    "contact_number": "0381 236 1244",
    "coordinates": {
      "lat": 23.6767032,
      "lng": 91.2814669
    }
  },
  {
    "place_id": "ChIJLzC4GgOIVDcRo9HtBjBvtYo",
    "name": "Barura Police Station",
    "address": "93G3+42J, Upazila Rd, Barura, Bangladesh",
    "rating": "N/A",
    "contact_number": "N/A",
    "coordinates": {
      "lat": 23.3753447,
      "lng": 91.05251589999999
    }
  },
  {
    "place_id": "ChIJK3qs8at-VDcRs3xetmFD-QY",
    "name": "Tourist Police Comilla Zone",
    "address": "F49Q+CR8, Bangladesh",
    "rating": "N/A",
    "contact_number": "01320-158969",
    "coordinates": {
      "lat": 23.4685365,
      "lng": 91.13956379999999
    }
  },
  {
    "place_id": "ChIJ737aVfV9VDcRMJ43rOxNzzw",
    "name": "Amtali Police Station",
    "address": "94H8+CHP, road, Amtali, Bangladesh",
    "rating": "N/A",
    "contact_number": "N/A",
    "coordinates": {
      "lat": 23.3785909,
      "lng": 91.1164407
    }
  },
  {
    "place_id": "ChIJLVQG5KJ7VDcRS5DYo-LtwGw",
    "name": "Mainamati Police Check Point",
    "address": "G423+2XJ, Cumilla - Sylhet Hwy, Bangladesh",
    "rating": "N/A",
    "contact_number": "01619-286132",
    "coordinates": {
      "lat": 23.5000862,
      "lng": 91.10488769999999
    }
  },
  {
    "place_id": "ChIJd8LFc4Z_VDcR-s0Q-m2AqZo",
    "name": "আদর্শ গ্রাম সাগরিকা বাজার (পলিশ পাড়ি)",
    "address": "C5F9+5QH, Sonagazi Rd, Bangladesh",
    "rating": "N/A",
    "contact_number": "N/A",
    "coordinates": {
      "lat": 23.42293759999999,
      "lng": 91.16947429999999
    }
  },
  {
    "place_id": "ChIJY232nQF7VDcR-IE9v92U_Wc",
    "name": "Debpur Police Fari",
    "address": "G39V+958, Comilla - Sylhet Road, Bangladesh",
    "rating": "N/A",
    "contact_number": "01963-775092",
    "coordinates": {
      "lat": 23.5184191,
      "lng": 91.09296359999999
    }
  },
  {
    "place_id": "ChIJH9AgxuF-VDcRgHkkUq5bUtM",
    "name": "RAB-11 Office",
    "address": "C5WF+849, Comilla, Bangladesh",
    "rating": "N/A",
    "contact_number": "01777-711122",
    "coordinates": {
      "lat": 23.4457958,
      "lng": 91.1728507
    }
  },
  {
    "place_id": "ChIJrWwBDqV_VDcRxympVzRxmCQ",
    "name": "Assistant Police Super Office",
    "address": "C59F+96W, Dhaka - Chittagong Hwy, Paduar Bazar Bishwa Road, Bangladesh",
    "rating": "N/A",
    "contact_number": "N/A",
    "coordinates": {
      "lat": 23.4184773,
      "lng": 91.17308779999999
    }
  },
  {
    "place_id": "ChIJc8B91yl_VDcRQx2a5-V-Nnc",
    "name": "Police Line's Cumilla",
    "address": "3500, 12 Police Lines Rd, Comilla 3500, Bangladesh",
    "rating": "N/A",
    "contact_number": "N/A",
    "coordinates": {
      "lat": 23.4665355,
      "lng": 91.17328769999999
    }
  },
  {
    "place_id": "ChIJlRXPigWBVDcRh8EkRgWvebQ",
    "name": "Laksam Crossing Highway Police Station",
    "address": "95F4+XCJ, Bangladesh",
    "rating": "N/A",
    "contact_number": "01867-405279",
    "coordinates": {
      "lat": 23.3749602,
      "lng": 91.15602609999999
    }
  },
  {
    "place_id": "ChIJxZHm9uN_VDcR_yv-oKvm4pw",
    "name": "Tomsonbridge Police Box (টমসনব্রীজ পুলিশ বক্স)",
    "address": "38 Comilla Kotbari Rd, Comilla 3503, Bangladesh",
    "rating": "N/A",
    "contact_number": "N/A",
    "coordinates": {
      "lat": 23.4497329,
      "lng": 91.1786163
    }
  },
  {
    "place_id": "ChIJs3zF2Yh_VDcR7BiYkGbevW4",
    "name": "EPZ police outpost",
    "address": "217 EPZ 2nd Gate Rd, Comilla, Bangladesh",
    "rating": "N/A",
    "contact_number": "N/A",
    "coordinates": {
      "lat": 23.441973,
      "lng": 91.1809045
    }
  },
  {
    "place_id": "ChIJ7bcsYC9_VDcR7xNO-CPdBIA",
    "name": "Kandirpar Police Outpost",
    "address": "F56J+782, R141, Comilla, Bangladesh",
    "rating": "N/A",
    "contact_number": "0816-5036",
    "coordinates": {
      "lat": 23.46063059999999,
      "lng": 91.1807751
    }
  },
  {
    "place_id": "ChIJdyzRRbxpVDcRriJlOn65SlU",
    "name": "Muradnagar Police Station",
    "address": "JWQJ+2FW, High School Road, মুরাদনগর 3540, Bangladesh",
    "rating": "N/A",
    "contact_number": "01713-373695",
    "coordinates": {
      "lat": 23.6376025,
      "lng": 90.9312116
    }
  },
  {
    "place_id": "ChIJ9TKOEkF_VDcRZztzlUk5utY",
    "name": "Police Station",
    "address": "F53W+6H6, Comilla 3500, Bangladesh",
    "rating": "N/A",
    "contact_number": "01756-134427",
    "coordinates": {
      "lat": 23.453035,
      "lng": 91.1963979
    }
  },
  {
    "place_id": "ChIJ3xxPRZp-VDcRt9xLXg5o1es",
    "name": "Kotbari Police Outpost",
    "address": "C4RV+H7W, Cumilla - Kotbari Rd, Kotbari, Bangladesh",
    "rating": "N/A",
    "contact_number": "01713-373700",
    "coordinates": {
      "lat": 23.441494,
      "lng": 91.1431983
    }
  },
  {
    "place_id": "ChIJOZgOjf57VDcRkPJjz22ZXSs",
    "name": "ময়নামতি হাইওয়ে থানা",
    "address": "F4HJ+7XF, Bangladesh",
    "rating": 3.5,
    "contact_number": "01818-212396",
    "coordinates": {
      "lat": 23.4781901,
      "lng": 91.1324125
    }
  },
  {
    "place_id": "ChIJ_es4MnBkVDcRqzKhIRY0tmg",
    "name": "Chandina Model Police Station",
    "address": "F2P5+59G, Chandina Grand Trunk Rd, Chandina, Bangladesh",
    "rating": "N/A",
    "contact_number": "01713-373692",
    "coordinates": {
      "lat": 23.48543279999999,
      "lng": 91.0084665
    }
  },
  {
    "place_id": "ChIJg627R1N-VDcRWRP64vDn5k8",
    "name": "Sadar South Police Station",
    "address": "C59F+76M, N1, Paduar Bazar Bishwa Road 3500, Bangladesh",
    "rating": "N/A",
    "contact_number": "01713-373700",
    "coordinates": {
      "lat": 23.4182152,
      "lng": 91.17305870000001
    }
  },
  {
    "place_id": "ChIJ8Rys-yl_VDcRbFGTQ9AoXLI",
    "name": "Additional Police Super, Sadar Circle Office",
    "address": "F58F+PJQ, CML03, Comilla 3500, Bangladesh",
    "rating": "N/A",
    "contact_number": "01713-373682",
    "coordinates": {
      "lat": 23.4668442,
      "lng": 91.17411229999999
    }
  },
  {
    "place_id": "ChIJqTBdJy1_VDcRNeWd2FkG6NY",
    "name": "কোর্ট পুলিশ",
    "address": "কুমিল্লা জজ কোর্ট, CML26, Comilla, Bangladesh",
    "rating": "N/A",
    "contact_number": "0816-8888",
    "coordinates": {
      "lat": 23.47216689999999,
      "lng": 91.1809548
    }
  },
  {
    "place_id": "ChIJZfHrJDF_VDcR6KDqTH22kDA",
    "name": "Kotwali Model Police Station, Cumilla",
    "address": "F57P+WWC, Comilla, Bangladesh",
    "rating": "N/A",
    "contact_number": "01320-113996",
    "coordinates": {
      "lat": 23.4648126,
      "lng": 91.1872674
    }
  },
  {
    "place_id": "ChIJV3xgSRx6VDcRxLp998Sho5s",
    "name": "Burichang Police Station",
    "address": "H43M+329, Kalikapur Rd, Burichang, Bangladesh",
    "rating": "N/A",
    "contact_number": "01320-114152",
    "coordinates": {
      "lat": 23.5526576,
      "lng": 91.1325949
    }
  },
  {
    "place_id": "ChIJn-yHOGGEVDcRsEf0gNuMxe8",
    "name": "Laksam Police Station",
    "address": "64R9+6R4, Exit Road, Laksam, Bangladesh",
    "rating": "N/A",
    "contact_number": "01713-373689",
    "coordinates": {
      "lat": 23.2405212,
      "lng": 91.1195843
    }
  },
  {
    "place_id": "ChIJ4wUQPbqNVDcRFhgSvPj4xGw",
    "name": "Shaharsti Thana Police Station",
    "address": "6XF4+6X4, A357, Shahrasti, Bangladesh",
    "rating": "N/A",
    "contact_number": "01320-116080",
    "coordinates": {
      "lat": 23.2230243,
      "lng": 90.9574648
    }
  },
  {
    "place_id": "ChIJj_XRe-ZaVDcRnxMjHuu34ko",
    "name": "গৌরীপুর পুলিশ তদন্ত কেন্দ্র",
    "address": "GQRM+HCV, Gouripur - Homna Hwy, Gouripur 3517, Bangladesh",
    "rating": "N/A",
    "contact_number": "02-9561967",
    "coordinates": {
      "lat": 23.54149709999999,
      "lng": 90.78354709999999
    }
  },
  {
    "place_id": "ChIJ_d_8BIdsVDcRnkCZ4QZtgL4",
    "name": "বাঙ্গরা থানা",
    "address": "PX7Q+XGM, Barashalghar - Bangora Road, Bangura, Bangladesh",
    "rating": "N/A",
    "contact_number": "01907-132625",
    "coordinates": {
      "lat": 23.7149598,
      "lng": 90.9887885
    }
  },
  {
    "place_id": "ChIJD51OIw57UzcRcdBDsfNzvDc",
    "name": "Chauddagram Police Station",
    "address": "68F7+4VC, Dhaka - Chittagong Hwy, Chauddagram, Bangladesh",
    "rating": "N/A",
    "contact_number": "01320-114027",
    "coordinates": {
      "lat": 23.2228042,
      "lng": 91.31464070000001
    }
  },
  {
    "place_id": "ChIJ44SMnLl0VDcRL98t0mPAuy8",
    "name": "Kasba Police Station",
    "address": "P5V2+V44, Kasba, Bangladesh",
    "rating": "N/A",
    "contact_number": "01713-373736",
    "coordinates": {
      "lat": 23.7446401,
      "lng": 91.15034039999999
    }
  },
  {
    "place_id": "ChIJ32_cOFBQVDcR21r4nRvQp-U",
    "name": "Daudkandi Highway Police Station",
    "address": "GPHW+5GP, Bangladesh",
    "rating": "N/A",
    "contact_number": "01828-387249",
    "coordinates": {
      "lat": 23.5279647,
      "lng": 90.746321
    }
  },
  {
    "place_id": "ChIJF-0k4cH0UzcRYhH3XBkDmX8",
    "name": "Amtali Police Station",
    "address": "Q7J8+JCV, Arundhauti Nagar, Madhupur, Tripura 799014, India",
    "rating": "N/A",
    "contact_number": "N/A",
    "coordinates": {
      "lat": 23.7816113,
      "lng": 91.2660566
    }
  },
  {
    "place_id": "ChIJ-VJUXfiYVDcRpZ2E2PtjMOQ",
    "name": "Sonaimuri Police Station",
    "address": "23PX+375, Sonaimuri Bypass Road, Sonaimuri, Bangladesh",
    "rating": "N/A",
    "contact_number": "01741-882982",
    "coordinates": {
      "lat": 23.0351454,
      "lng": 91.0982219
    }
  },
  {
    "place_id": "ChIJ2XT_BCdyUzcRWq1fJqKdJuQ",
    "name": "Parshuram Model Thana",
    "address": "6C8W+X59, Z1035, Parshuram, Bangladesh",
    "rating": "N/A",
    "contact_number": "01713-373781",
    "coordinates": {
      "lat": 23.2174047,
      "lng": 91.445486
    }
  },
  {
    "place_id": "ChIJb2mGCm1SVDcRgIZre__4wnA",
    "name": "Gazaria Police Station",
    "address": "HM54+5CJ, Hospital Rd, Bangladesh",
    "rating": 4,
    "contact_number": "01320-093431",
    "coordinates": {
      "lat": 23.5579658,
      "lng": 90.65600420000001
    }
  },
  {
    "place_id": "ChIJG5U6VoD8VDcRbWTHG6Zy29o",
    "name": "Office of the Superintendent of Police",
    "address": "Sologhar, Chandpur, 6MPF+6X9, চাঁদপুর 3600, Bangladesh",
    "rating": "N/A",
    "contact_number": "01713-373705",
    "coordinates": {
      "lat": 23.2355281,
      "lng": 90.6749876
    }
  },
  {
    "place_id": "ChIJBTve4Zo4VDcRkCN2hjZUSqc",
    "name": "Bancharampur Police Station",
    "address": "QRC2+4V2, Salimabad - Rupasdi Rd, Bancharampur, Bangladesh",
    "rating": "N/A",
    "contact_number": "01713-373735",
    "coordinates": {
      "lat": 23.7702642,
      "lng": 90.8021306
    }
  },
  {
    "place_id": "ChIJ90TluJzlVDcRRQ1Di8zXwEs",
    "name": "Faridganj Police Station",
    "address": "4PQV+46C, Faridganj, Bangladesh",
    "rating": "N/A",
    "contact_number": "01854-426338",
    "coordinates": {
      "lat": 23.1378022,
      "lng": 90.74301950000002
    }
  },
  {
    "place_id": "ChIJJ52LtRL0UzcRIspOhSjNjMM",
    "name": "West Agartala Police Station",
    "address": "Agartala West, R7HH+V8G, Hari Ganga Basak Road, Post Office Chowmohani, Dhaleswar, Agartala, Tripura 799001, India",
    "rating": "N/A",
    "contact_number": "N/A",
    "coordinates": {
      "lat": 23.8296751,
      "lng": 91.2783183
    }
  },
  {
    "place_id": "ChIJ7yQGwuIJVDcRYdS2dhPhfb8",
    "name": "Akhaura Police Station",
    "address": "V686+X7Q, Akhaura, Bangladesh",
    "rating": "N/A",
    "contact_number": "01713-373731",
    "coordinates": {
      "lat": 23.8674652,
      "lng": 91.2107431
    }
  },
  {
    "place_id": "ChIJT-DJW_CLUzcRlZFLbuxpvgQ",
    "name": "Bishalgarh Police Station",
    "address": "M7FJ+HMM, NH 44, Bishalgarh, Laxmibil, Tripura 799102, India",
    "rating": 5,
    "contact_number": "0381 236 1244",
    "coordinates": {
      "lat": 23.6767032,
      "lng": 91.2814669
    }
  },
  {
    "place_id": "ChIJLzC4GgOIVDcRo9HtBjBvtYo",
    "name": "Barura Police Station",
    "address": "93G3+42J, Upazila Rd, Barura, Bangladesh",
    "rating": "N/A",
    "contact_number": "N/A",
    "coordinates": {
      "lat": 23.3753447,
      "lng": 91.05251589999999
    }
  },
  {
    "place_id": "ChIJK3qs8at-VDcRs3xetmFD-QY",
    "name": "Tourist Police Comilla Zone",
    "address": "F49Q+CR8, Bangladesh",
    "rating": "N/A",
    "contact_number": "01320-158969",
    "coordinates": {
      "lat": 23.4685365,
      "lng": 91.13956379999999
    }
  },
  {
    "place_id": "ChIJ737aVfV9VDcRMJ43rOxNzzw",
    "name": "Amtali Police Station",
    "address": "94H8+CHP, road, Amtali, Bangladesh",
    "rating": "N/A",
    "contact_number": "N/A",
    "coordinates": {
      "lat": 23.3785909,
      "lng": 91.1164407
    }
  },
  {
    "place_id": "ChIJLVQG5KJ7VDcRS5DYo-LtwGw",
    "name": "Mainamati Police Check Point",
    "address": "G423+2XJ, Cumilla - Sylhet Hwy, Bangladesh",
    "rating": "N/A",
    "contact_number": "01619-286132",
    "coordinates": {
      "lat": 23.5000862,
      "lng": 91.10488769999999
    }
  },
  {
    "place_id": "ChIJd8LFc4Z_VDcR-s0Q-m2AqZo",
    "name": "আদর্শ গ্রাম সাগরিকা বাজার (পলিশ পাড়ি)",
    "address": "C5F9+5QH, Sonagazi Rd, Bangladesh",
    "rating": "N/A",
    "contact_number": "N/A",
    "coordinates": {
      "lat": 23.42293759999999,
      "lng": 91.16947429999999
    }
  },
  {
    "place_id": "ChIJY232nQF7VDcR-IE9v92U_Wc",
    "name": "Debpur Police Fari",
    "address": "G39V+958, Comilla - Sylhet Road, Bangladesh",
    "rating": "N/A",
    "contact_number": "01963-775092",
    "coordinates": {
      "lat": 23.5184191,
      "lng": 91.09296359999999
    }
  },
  {
    "place_id": "ChIJH9AgxuF-VDcRgHkkUq5bUtM",
    "name": "RAB-11 Office",
    "address": "C5WF+849, Comilla, Bangladesh",
    "rating": "N/A",
    "contact_number": "01777-711122",
    "coordinates": {
      "lat": 23.4457958,
      "lng": 91.1728507
    }
  },
  {
    "place_id": "ChIJrWwBDqV_VDcRxympVzRxmCQ",
    "name": "Assistant Police Super Office",
    "address": "C59F+96W, Dhaka - Chittagong Hwy, Paduar Bazar Bishwa Road, Bangladesh",
    "rating": "N/A",
    "contact_number": "N/A",
    "coordinates": {
      "lat": 23.4184773,
      "lng": 91.17308779999999
    }
  },
  {
    "place_id": "ChIJc8B91yl_VDcRQx2a5-V-Nnc",
    "name": "Police Line's Cumilla",
    "address": "3500, 12 Police Lines Rd, Comilla 3500, Bangladesh",
    "rating": "N/A",
    "contact_number": "N/A",
    "coordinates": {
      "lat": 23.4665355,
      "lng": 91.17328769999999
    }
  },